{"type":"FeatureCollection","features":[{"type":"Feature","id":"MISTPLATZOGD.1230123","geometry":{"type":"Point","coordinates":[16.30955897,48.20417445]},"geometry_name":"SHAPE","properties":{"BEZIRK":16,"ADRESSE":"Kendlerstraße 38a","OBJEKT":"Mistplatz","OEFFNUNGSZEIT":"Mo-Fr 7:00-18:00 Uhr, Sa 8:00-18:00 Uhr mit Einschränkung.","WEBLINK1":"https://www.wien.gv.at/umwelt/ma48/entsorgung/mistplatz/ottakring.html","SE_SDO_ROWID":1230123,"SE_ANNO_CAD_DATA":null}},{"type":"Feature","id":"MISTPLATZOGD.1230127","geometry":{"type":"Point","coordinates":[16.32056984,48.22476147]},"geometry_name":"SHAPE","properties":{"BEZIRK":17,"ADRESSE":"Richthausenstraße 2","OBJEKT":"WD/Mistplatz","OEFFNUNGSZEIT":"Mo-Sa 7:00-18:00 Uhr","WEBLINK1":"https://www.wien.gv.at/umwelt/ma48/entsorgung/mistplatz/hernals.html","SE_SDO_ROWID":1230127,"SE_ANNO_CAD_DATA":null}},{"type":"Feature","id":"MISTPLATZOGD.1230667","geometry":{"type":"Point","coordinates":[16.41177,48.25027288]},"geometry_name":"SHAPE","properties":{"BEZIRK":21,"ADRESSE":"Fultonstraße 10","OBJEKT":"WD/Mistplatz","OEFFNUNGSZEIT":"Mo-Sa 7:00-18:00 Uhr","WEBLINK1":"https://www.wien.gv.at/umwelt/ma48/entsorgung/mistplatz/donaufeld.html","SE_SDO_ROWID":1230667,"SE_ANNO_CAD_DATA":null}},{"type":"Feature","id":"MISTPLATZOGD.1230671","geometry":{"type":"Point","coordinates":[16.43036478,48.2937757]},"geometry_name":"SHAPE","properties":{"BEZIRK":21,"ADRESSE":"Nikolsburger Gasse 12","OBJEKT":"WD/Mistplatz","OEFFNUNGSZEIT":"Mo-Sa 7:00-18:00 Uhr","WEBLINK1":"https://www.wien.gv.at/umwelt/ma48/entsorgung/mistplatz/stammersdorf.html","SE_SDO_ROWID":1230671,"SE_ANNO_CAD_DATA":null}},{"type":"Feature","id":"MISTPLATZOGD.1230675","geometry":{"type":"Point","coordinates":[16.44799974,48.21331573]},"geometry_name":"SHAPE","properties":{"BEZIRK":22,"ADRESSE":"Mühlwasserstraße 2","OBJEKT":"WD/Mistplatz","OEFFNUNGSZEIT":"Mo-Sa 7:00-18:00 Uhr","WEBLINK1":"https://www.wien.gv.at/umwelt/ma48/entsorgung/mistplatz/stadlau.html","SE_SDO_ROWID":1230675,"SE_ANNO_CAD_DATA":null}},{"type":"Feature","id":"MISTPLATZOGD.1230681","geometry":{"type":"Point","coordinates":[16.4673468,48.26616611]},"geometry_name":"SHAPE","properties":{"BEZIRK":22,"ADRESSE":"Percostraße 4 ","OBJEKT":"WD/Mistplatz","OEFFNUNGSZEIT":"Mo-Sa 7:00-18:00 Uhr","WEBLINK1":"https://www.wien.gv.at/umwelt/ma48/entsorgung/mistplatz/rinterzelt.html","SE_SDO_ROWID":1230681,"SE_ANNO_CAD_DATA":null}},{"type":"Feature","id":"MISTPLATZOGD.1230696","geometry":{"type":"Point","coordinates":[16.29331033,48.13755057]},"geometry_name":"SHAPE","properties":{"BEZIRK":23,"ADRESSE":"Seybelgasse 7","OBJEKT":"WD/Mistplatz","OEFFNUNGSZEIT":"Mo-Sa 7:00-18:00 Uhr","WEBLINK1":"https://www.wien.gv.at/umwelt/ma48/entsorgung/mistplatz/liesing.html","SE_SDO_ROWID":1230696,"SE_ANNO_CAD_DATA":null}},{"type":"Feature","id":"MISTPLATZOGD.1230048","geometry":{"type":"Point","coordinates":[16.30390454,48.16117678]},"geometry_name":"SHAPE","properties":{"BEZIRK":12,"ADRESSE":"Wundtgasse/Jägerhausgasse","OBJEKT":"WD/Mistplatz","OEFFNUNGSZEIT":"Mo-Sa 7:00-18:00 Uhr","WEBLINK1":"https://www.wien.gv.at/umwelt/ma48/entsorgung/mistplatz/hetzendorf.html","SE_SDO_ROWID":1230048,"SE_ANNO_CAD_DATA":null}},{"type":"Feature","id":"MISTPLATZOGD.1230057","geometry":{"type":"Point","coordinates":[16.36723287,48.14245819]},"geometry_name":"SHAPE","properties":{"BEZIRK":23,"ADRESSE":"Südrandstraße 2","OBJEKT":"WD/Mistplatz","OEFFNUNGSZEIT":"Mo-Sa 7:00-18:00 Uhr","WEBLINK1":"https://www.wien.gv.at/umwelt/ma48/entsorgung/mistplatz/inzersdorf.html","SE_SDO_ROWID":1230057,"SE_ANNO_CAD_DATA":null}},{"type":"Feature","id":"MISTPLATZOGD.1230060","geometry":{"type":"Point","coordinates":[16.38896668,48.17675121]},"geometry_name":"SHAPE","properties":{"BEZIRK":10,"ADRESSE":"Eva-Zilcher-Gasse 3","OBJEKT":"WD/Mistplatz","OEFFNUNGSZEIT":"Mo-Sa 7:00-18:00 Uhr","WEBLINK1":"https://www.wien.gv.at/umwelt/ma48/entsorgung/mistplatz/favoriten.html","SE_SDO_ROWID":1230060,"SE_ANNO_CAD_DATA":null}},{"type":"Feature","id":"MISTPLATZOGD.1230072","geometry":{"type":"Point","coordinates":[16.2281309,48.20568245]},"geometry_name":"SHAPE","properties":{"BEZIRK":14,"ADRESSE":"Wientalstraße 51","OBJEKT":"Mistplatz","OEFFNUNGSZEIT":"Mo-Sa 7:00-18:00 Uhr","WEBLINK1":"https://www.wien.gv.at/umwelt/ma48/entsorgung/mistplatz/auhof.html","SE_SDO_ROWID":1230072,"SE_ANNO_CAD_DATA":null}},{"type":"Feature","id":"MISTPLATZOGD.1230092","geometry":{"type":"Point","coordinates":[16.36761451,48.25469195]},"geometry_name":"SHAPE","properties":{"BEZIRK":19,"ADRESSE":"Grinzinger Straße 151","OBJEKT":"WD/Mistplatz","OEFFNUNGSZEIT":"Mo-Fr 7:00-18:00 Uhr, Sa 8:00-18:00 Uhr","WEBLINK1":"https://www.wien.gv.at/umwelt/ma48/entsorgung/mistplatz/hernals.html","SE_SDO_ROWID":1230092,"SE_ANNO_CAD_DATA":null}},{"type":"Feature","id":"MISTPLATZOGD.1230093","geometry":{"type":"Point","coordinates":[16.45548009,48.17709831]},"geometry_name":"SHAPE","properties":{"BEZIRK":11,"ADRESSE":"Johann-Petrak-Gasse 1","OBJEKT":"Mistplatz","OEFFNUNGSZEIT":"Mo-Sa 7:00-18:00 Uhr","WEBLINK1":"https://www.wien.gv.at/umwelt/ma48/entsorgung/mistplatz/simmering.html","SE_SDO_ROWID":1230093,"SE_ANNO_CAD_DATA":null}}],"totalFeatures":13,"numberMatched":13,"numberReturned":13,"timeStamp":"2024-01-11T16:23:05.256Z","crs":{"type":"name","properties":{"name":"urn:ogc:def:crs:EPSG::4326"}}}