{
"type": "FeatureCollection",
"name": "housing_points",
"crs": { "type": "name", "properties": { "name": "urn:ogc:def:crs:OGC:1.3:CRS84" } },
"features": [
{ "type": "Feature", "properties": { "name": "BOSCHSTRASSE 24", "type": "municipal", "ZBEZ": "1902" }, "geometry": { "type": "Point", "coordinates": [ 16.366682908314999, 48.25233907342129 ] } },
{ "type": "Feature", "properties": { "name": "WIEDNER HAUPTSTRASSE 132", "type": "municipal", "ZBEZ": "0502" }, "geometry": { "type": "Point", "coordinates": [ 16.360619763277686, 48.184068310371799 ] } },
{ "type": "Feature", "properties": { "name": "FISCHERSTIEGE 1-7", "type": "municipal", "ZBEZ": "0106" }, "geometry": { "type": "Point", "coordinates": [ 16.37159199848136, 48.212484165734374 ] } },
{ "type": "Feature", "properties": { "name": "AMORTGASSE 1-17", "type": "municipal", "ZBEZ": "1404" }, "geometry": { "type": "Point", "coordinates": [ 16.308529849834219, 48.194889025781428 ] } },
{ "type": "Feature", "properties": { "name": "EISNERGASSE 11-13", "type": "municipal", "ZBEZ": "1604" }, "geometry": { "type": "Point", "coordinates": [ 16.321762972408486, 48.212588101462899 ] } },
{ "type": "Feature", "properties": { "name": "Paul-Richter-Hof", "type": "municipal", "ZBEZ": "1505" }, "geometry": { "type": "Point", "coordinates": [ 16.327738008731039, 48.189755462502404 ] } },
{ "type": "Feature", "properties": { "name": "HOEPFLERGASSE 6", "type": "municipal", "ZBEZ": "2307" }, "geometry": { "type": "Point", "coordinates": [ 16.291170687606069, 48.144417393934496 ] } },
{ "type": "Feature", "properties": { "name": "DREYHAUSENSTRASSE 28-30", "type": "municipal", "ZBEZ": "1404" }, "geometry": { "type": "Point", "coordinates": [ 16.301120174165629, 48.197283604175951 ] } },
{ "type": "Feature", "properties": { "name": "HAMEAUSTRASSE 2-4", "type": "municipal", "ZBEZ": "1910" }, "geometry": { "type": "Point", "coordinates": [ 16.296963618448959, 48.252431019267142 ] } },
{ "type": "Feature", "properties": { "name": "ANTONSPLATZ 14-15", "type": "municipal", "ZBEZ": "1003" }, "geometry": { "type": "Point", "coordinates": [ 16.378300510460974, 48.169892699111656 ] } },
{ "type": "Feature", "properties": { "name": "GUTHEIL-SCHODER-G. 76", "type": "municipal", "ZBEZ": "2303" }, "geometry": { "type": "Point", "coordinates": [ 16.328446654904905, 48.154046784663755 ] } },
{ "type": "Feature", "properties": { "name": "Ernest-Bevin-Hof", "type": "municipal", "ZBEZ": "1705" }, "geometry": { "type": "Point", "coordinates": [ 16.295078516622379, 48.227340229250302 ] } },
{ "type": "Feature", "properties": { "name": "SCHEFFELSTRASSE 24", "type": "municipal", "ZBEZ": "2123" }, "geometry": { "type": "Point", "coordinates": [ 16.408097944146483, 48.254010156618932 ] } },
{ "type": "Feature", "properties": { "name": "HUETTELDORFER STR. 265-267", "type": "municipal", "ZBEZ": "1406" }, "geometry": { "type": "Point", "coordinates": [ 16.283208396461699, 48.197104062748963 ] } },
{ "type": "Feature", "properties": { "name": "RUDOLF-ZELLER-GASSE 71", "type": "municipal", "ZBEZ": "2311" }, "geometry": { "type": "Point", "coordinates": [ 16.281333842790573, 48.141315803413207 ] } },
{ "type": "Feature", "properties": { "name": "Karl-Höger-Hof", "type": "municipal", "ZBEZ": "1103" }, "geometry": { "type": "Point", "coordinates": [ 16.412425930563561, 48.172390152320723 ] } },
{ "type": "Feature", "properties": { "name": "Franz-Schreiner-Hof", "type": "municipal", "ZBEZ": "1805" }, "geometry": { "type": "Point", "coordinates": [ 16.308864153730571, 48.237855821822968 ] } },
{ "type": "Feature", "properties": { "name": "SIBELIUSSTRASSE 5", "type": "municipal", "ZBEZ": "1013" }, "geometry": { "type": "Point", "coordinates": [ 16.362914689426525, 48.158283138460718 ] } },
{ "type": "Feature", "properties": { "name": "Franz-Schuster-Hof", "type": "municipal", "ZBEZ": "0310" }, "geometry": { "type": "Point", "coordinates": [ 16.401150932340965, 48.198811529265384 ] } },
{ "type": "Feature", "properties": { "name": "WENHARTGASSE 20", "type": "municipal", "ZBEZ": "2118" }, "geometry": { "type": "Point", "coordinates": [ 16.384877168205648, 48.267937207648011 ] } },
{ "type": "Feature", "properties": { "name": "SALZERGASSE 29", "type": "municipal", "ZBEZ": "0901" }, "geometry": { "type": "Point", "coordinates": [ 16.356556204786685, 48.227724175826459 ] } },
{ "type": "Feature", "properties": { "name": "ZIRKUSGASSE 22", "type": "municipal", "ZBEZ": "0205" }, "geometry": { "type": "Point", "coordinates": [ 16.383912685557977, 48.215748523279728 ] } },
{ "type": "Feature", "properties": { "name": "Josef-Rautmann-Hof", "type": "municipal", "ZBEZ": "1412" }, "geometry": { "type": "Point", "coordinates": [ 16.211863674777913, 48.208772206427497 ] } },
{ "type": "Feature", "properties": { "name": "SIMMERINGER HAUPTSTR 136-140", "type": "municipal", "ZBEZ": "1105" }, "geometry": { "type": "Point", "coordinates": [ 16.421680386793302, 48.168603021996752 ] } },
{ "type": "Feature", "properties": { "name": "WOLFERSBERGGASSE 13-17", "type": "municipal", "ZBEZ": "1410" }, "geometry": { "type": "Point", "coordinates": [ 16.252422313357723, 48.20781077936735 ] } },
{ "type": "Feature", "properties": { "name": "Robert-Blum-Hof", "type": "municipal", "ZBEZ": "2002" }, "geometry": { "type": "Point", "coordinates": [ 16.387874960528958, 48.236727640051633 ] } },
{ "type": "Feature", "properties": { "name": "KORBERGASSE 8", "type": "municipal", "ZBEZ": "1201" }, "geometry": { "type": "Point", "coordinates": [ 16.339565463936729, 48.185352264717729 ] } },
{ "type": "Feature", "properties": { "name": "Goethehof", "type": "municipal", "ZBEZ": "2211" }, "geometry": { "type": "Point", "coordinates": [ 16.419864644953105, 48.229971580124854 ] } },
{ "type": "Feature", "properties": { "name": "FRIEDRICH-KAISER-G. 27", "type": "municipal", "ZBEZ": "1601" }, "geometry": { "type": "Point", "coordinates": [ 16.327527086402135, 48.211256489758469 ] } },
{ "type": "Feature", "properties": { "name": "SIMON-DENK-GASSE 4-6", "type": "municipal", "ZBEZ": "0901" }, "geometry": { "type": "Point", "coordinates": [ 16.359672602379852, 48.225649633749313 ] } },
{ "type": "Feature", "properties": { "name": "SAUTERGASSE 44", "type": "municipal", "ZBEZ": "1703" }, "geometry": { "type": "Point", "coordinates": [ 16.318185869606442, 48.22167518840515 ] } },
{ "type": "Feature", "properties": { "name": "SPEISINGER STRASSE 68", "type": "municipal", "ZBEZ": "1308" }, "geometry": { "type": "Point", "coordinates": [ 16.282795942346922, 48.16732239557728 ] } },
{ "type": "Feature", "properties": { "name": "AM HEIDJOECHL 14", "type": "municipal", "ZBEZ": "2206" }, "geometry": { "type": "Point", "coordinates": [ 16.486427233183221, 48.235784427300715 ] } },
{ "type": "Feature", "properties": { "name": "Metzleinstalerhof", "type": "municipal", "ZBEZ": "0502" }, "geometry": { "type": "Point", "coordinates": [ 16.349166188880545, 48.181473127242135 ] } },
{ "type": "Feature", "properties": { "name": "Johann-Hartmann-Hof", "type": "municipal", "ZBEZ": "1506" }, "geometry": { "type": "Point", "coordinates": [ 16.320090715813535, 48.197199799958547 ] } },
{ "type": "Feature", "properties": { "name": "BRUENNER STRASSE 108", "type": "municipal", "ZBEZ": "2110" }, "geometry": { "type": "Point", "coordinates": [ 16.408778039265229, 48.274662429663863 ] } },
{ "type": "Feature", "properties": { "name": "THALHAIMERGASSE 44", "type": "municipal", "ZBEZ": "1610" }, "geometry": { "type": "Point", "coordinates": [ 16.320901397624329, 48.210318779640566 ] } },
{ "type": "Feature", "properties": { "name": "GRAUMANNGASSE 33", "type": "municipal", "ZBEZ": "1504" }, "geometry": { "type": "Point", "coordinates": [ 16.333323865119901, 48.186827289337693 ] } },
{ "type": "Feature", "properties": { "name": "WERNDLGASSE 11-19", "type": "municipal", "ZBEZ": "2121" }, "geometry": { "type": "Point", "coordinates": [ 16.40409537810875, 48.262805408421364 ] } },
{ "type": "Feature", "properties": { "name": "Vogelweidhof", "type": "municipal", "ZBEZ": "1501" }, "geometry": { "type": "Point", "coordinates": [ 16.336230663056973, 48.202136187725479 ] } },
{ "type": "Feature", "properties": { "name": "DRESDNER STRASSE 48-54", "type": "municipal", "ZBEZ": "2007" }, "geometry": { "type": "Point", "coordinates": [ 16.378276227606946, 48.237374160571882 ] } },
{ "type": "Feature", "properties": { "name": "WULZENDORFSTRASSE 92-94", "type": "municipal", "ZBEZ": "2224" }, "geometry": { "type": "Point", "coordinates": [ 16.474950598350542, 48.212800074058407 ] } },
{ "type": "Feature", "properties": { "name": "JAK.-SOMMERBAUER-STR 3", "type": "municipal", "ZBEZ": "2316" }, "geometry": { "type": "Point", "coordinates": [ 16.235853131256242, 48.137233425534262 ] } },
{ "type": "Feature", "properties": { "name": "BREITENFURTER STR. 556", "type": "municipal", "ZBEZ": "2316" }, "geometry": { "type": "Point", "coordinates": [ 16.238665822165174, 48.138193319986009 ] } },
{ "type": "Feature", "properties": { "name": "Franz-Koblizka-Hof", "type": "municipal", "ZBEZ": "2004" }, "geometry": { "type": "Point", "coordinates": [ 16.369642545719817, 48.240892311031047 ] } },
{ "type": "Feature", "properties": { "name": "GRINZINGER STRASSE 54", "type": "municipal", "ZBEZ": "1905" }, "geometry": { "type": "Point", "coordinates": [ 16.352574493133371, 48.252180027735442 ] } },
{ "type": "Feature", "properties": { "name": "Schimonhof", "type": "municipal", "ZBEZ": "1403" }, "geometry": { "type": "Point", "coordinates": [ 16.292484419490115, 48.191927493219133 ] } },
{ "type": "Feature", "properties": { "name": "CUMBERLANDSTRASSE 20", "type": "municipal", "ZBEZ": "1403" }, "geometry": { "type": "Point", "coordinates": [ 16.307886643888612, 48.191978127276052 ] } },
{ "type": "Feature", "properties": { "name": "PETZVALGASSE 1-3", "type": "municipal", "ZBEZ": "0404" }, "geometry": { "type": "Point", "coordinates": [ 16.372157195484046, 48.186271346994189 ] } },
{ "type": "Feature", "properties": { "name": "BRANDMAYERGASSE 2", "type": "municipal", "ZBEZ": "0503" }, "geometry": { "type": "Point", "coordinates": [ 16.352512754948197, 48.185517888537362 ] } },
{ "type": "Feature", "properties": { "name": "BERZELIUSGASSE 8", "type": "municipal", "ZBEZ": "2110" }, "geometry": { "type": "Point", "coordinates": [ 16.412532337056689, 48.276609873523128 ] } },
{ "type": "Feature", "properties": { "name": "LIEBENSTRASSE 48", "type": "municipal", "ZBEZ": "1208" }, "geometry": { "type": "Point", "coordinates": [ 16.325313707933319, 48.16946076028632 ] } },
{ "type": "Feature", "properties": { "name": "BURGHARDTGASSE 30", "type": "municipal", "ZBEZ": "2006" }, "geometry": { "type": "Point", "coordinates": [ 16.367671113975842, 48.237481621333622 ] } },
{ "type": "Feature", "properties": { "name": "PFARRHOFGASSE 14", "type": "municipal", "ZBEZ": "0309" }, "geometry": { "type": "Point", "coordinates": [ 16.39085073353306, 48.200596687022333 ] } },
{ "type": "Feature", "properties": { "name": "GRIEGSTRASSE 5", "type": "municipal", "ZBEZ": "2001" }, "geometry": { "type": "Point", "coordinates": [ 16.377087449167348, 48.24835198710678 ] } },
{ "type": "Feature", "properties": { "name": "THERESIENBADGASSE 1", "type": "municipal", "ZBEZ": "1205" }, "geometry": { "type": "Point", "coordinates": [ 16.328856671778972, 48.183013270175458 ] } },
{ "type": "Feature", "properties": { "name": "ERZHERZOG-KARL-STR. 84-88", "type": "municipal", "ZBEZ": "2215" }, "geometry": { "type": "Point", "coordinates": [ 16.445870451772443, 48.232326537307941 ] } },
{ "type": "Feature", "properties": { "name": "OTTAKRINGER STRASSE 188", "type": "municipal", "ZBEZ": "1604" }, "geometry": { "type": "Point", "coordinates": [ 16.312650034280399, 48.21375324473312 ] } },
{ "type": "Feature", "properties": { "name": "ADOLF-KIRCHL-GASSE 1", "type": "municipal", "ZBEZ": "1013" }, "geometry": { "type": "Point", "coordinates": [ 16.362869489795688, 48.15403757630466 ] } },
{ "type": "Feature", "properties": { "name": "HABERLGASSE 86", "type": "municipal", "ZBEZ": "1601" }, "geometry": { "type": "Point", "coordinates": [ 16.331716343582389, 48.213764046065222 ] } },
{ "type": "Feature", "properties": { "name": "KRANZGASSE 20", "type": "municipal", "ZBEZ": "1503" }, "geometry": { "type": "Point", "coordinates": [ 16.333090942443292, 48.190684006299129 ] } },
{ "type": "Feature", "properties": { "name": "WALLENSTEINSTRASSE 68-72", "type": "municipal", "ZBEZ": "2003" }, "geometry": { "type": "Point", "coordinates": [ 16.377746312901937, 48.231026261502883 ] } },
{ "type": "Feature", "properties": { "name": "SULMGASSE 22-24", "type": "municipal", "ZBEZ": "1603" }, "geometry": { "type": "Point", "coordinates": [ 16.315592550313653, 48.211604380002221 ] } },
{ "type": "Feature", "properties": { "name": "MEXIKOPLATZ 2-3", "type": "municipal", "ZBEZ": "0201" }, "geometry": { "type": "Point", "coordinates": [ 16.402633439267692, 48.226913065343091 ] } },
{ "type": "Feature", "properties": { "name": "UNTERE AUGARTENSTR. 1-3", "type": "municipal", "ZBEZ": "0203" }, "geometry": { "type": "Point", "coordinates": [ 16.371168975096356, 48.219819560578479 ] } },
{ "type": "Feature", "properties": { "name": "MAUTNER-MARKHOF-G. 10", "type": "municipal", "ZBEZ": "1102" }, "geometry": { "type": "Point", "coordinates": [ 16.417830408812893, 48.178104863194569 ] } },
{ "type": "Feature", "properties": { "name": "KAASGRABENGASSE 3A", "type": "municipal", "ZBEZ": "1906" }, "geometry": { "type": "Point", "coordinates": [ 16.339195131254726, 48.249432580304898 ] } },
{ "type": "Feature", "properties": { "name": "DADLERGASSE 17", "type": "municipal", "ZBEZ": "1505" }, "geometry": { "type": "Point", "coordinates": [ 16.327277036797788, 48.190850323461653 ] } },
{ "type": "Feature", "properties": { "name": "BLATTGASSE 5", "type": "municipal", "ZBEZ": "0301" }, "geometry": { "type": "Point", "coordinates": [ 16.392320269380019, 48.2077129741485 ] } },
{ "type": "Feature", "properties": { "name": "HERZGASSE 76", "type": "municipal", "ZBEZ": "1010" }, "geometry": { "type": "Point", "coordinates": [ 16.365897545778079, 48.171283484675882 ] } },
{ "type": "Feature", "properties": { "name": "Bertha-von-Suttner-Hof", "type": "municipal", "ZBEZ": "0404" }, "geometry": { "type": "Point", "coordinates": [ 16.370400134907204, 48.190832492754211 ] } },
{ "type": "Feature", "properties": { "name": "SCHOENBRUNNER STR. 101", "type": "municipal", "ZBEZ": "0504" }, "geometry": { "type": "Point", "coordinates": [ 16.350715321417951, 48.188916801106714 ] } },
{ "type": "Feature", "properties": { "name": "Franz-Kinkor-Hof", "type": "municipal", "ZBEZ": "1506" }, "geometry": { "type": "Point", "coordinates": [ 16.317281884409834, 48.195089550328191 ] } },
{ "type": "Feature", "properties": { "name": "MARKTGASSE 19", "type": "municipal", "ZBEZ": "0901" }, "geometry": { "type": "Point", "coordinates": [ 16.357772966710094, 48.226609977901234 ] } },
{ "type": "Feature", "properties": { "name": "KORBERGASSE 4-6", "type": "municipal", "ZBEZ": "1201" }, "geometry": { "type": "Point", "coordinates": [ 16.339474726865909, 48.185579221280541 ] } },
{ "type": "Feature", "properties": { "name": "SPITTELBREITENGASSE 23", "type": "municipal", "ZBEZ": "1207" }, "geometry": { "type": "Point", "coordinates": [ 16.324812489788162, 48.175816919823362 ] } },
{ "type": "Feature", "properties": { "name": "JAEGERSTRASSE 89-95", "type": "municipal", "ZBEZ": "2006" }, "geometry": { "type": "Point", "coordinates": [ 16.369964790953027, 48.238905544824185 ] } },
{ "type": "Feature", "properties": { "name": "SCHUETZENGASSE 27-29", "type": "municipal", "ZBEZ": "0305" }, "geometry": { "type": "Point", "coordinates": [ 16.390607612497167, 48.194304498337011 ] } },
{ "type": "Feature", "properties": { "name": "ALTHANSTRASSE 27", "type": "municipal", "ZBEZ": "0901" }, "geometry": { "type": "Point", "coordinates": [ 16.359632117731707, 48.228229781852356 ] } },
{ "type": "Feature", "properties": { "name": "Karl-Schönherr-Hof", "type": "municipal", "ZBEZ": "0901" }, "geometry": { "type": "Point", "coordinates": [ 16.359078899333646, 48.226760419552363 ] } },
{ "type": "Feature", "properties": { "name": "PUCHSBAUMGASSE 5-7", "type": "municipal", "ZBEZ": "1002" }, "geometry": { "type": "Point", "coordinates": [ 16.388469803774555, 48.171987309731165 ] } },
{ "type": "Feature", "properties": { "name": "PLENERGASSE 12", "type": "municipal", "ZBEZ": "1802" }, "geometry": { "type": "Point", "coordinates": [ 16.33716057825875, 48.227178009960888 ] } },
{ "type": "Feature", "properties": { "name": "BRAUNHIRSCHENGASSE 17-21", "type": "municipal", "ZBEZ": "1505" }, "geometry": { "type": "Point", "coordinates": [ 16.326468424000112, 48.188270561046224 ] } },
{ "type": "Feature", "properties": { "name": "HAGENMUELLERGASSE 25", "type": "municipal", "ZBEZ": "0310" }, "geometry": { "type": "Point", "coordinates": [ 16.403893871276114, 48.198008668337508 ] } },
{ "type": "Feature", "properties": { "name": "Widholzhof", "type": "municipal", "ZBEZ": "1103" }, "geometry": { "type": "Point", "coordinates": [ 16.410409167965348, 48.174161475010401 ] } },
{ "type": "Feature", "properties": { "name": "RODA-RODA-GASSE 6", "type": "municipal", "ZBEZ": "2114" }, "geometry": { "type": "Point", "coordinates": [ 16.384035014056654, 48.290321470963434 ] } },
{ "type": "Feature", "properties": { "name": "BACHGASSE 12", "type": "municipal", "ZBEZ": "1601" }, "geometry": { "type": "Point", "coordinates": [ 16.329234239229649, 48.210883305365321 ] } },
{ "type": "Feature", "properties": { "name": "RUFGASSE 4", "type": "municipal", "ZBEZ": "0901" }, "geometry": { "type": "Point", "coordinates": [ 16.355129494012026, 48.229674721284638 ] } },
{ "type": "Feature", "properties": { "name": "Pestalozzihof", "type": "municipal", "ZBEZ": "1904" }, "geometry": { "type": "Point", "coordinates": [ 16.350896251496152, 48.233953422143031 ] } },
{ "type": "Feature", "properties": { "name": "HOHENBERGSTRASSE 34", "type": "municipal", "ZBEZ": "1207" }, "geometry": { "type": "Point", "coordinates": [ 16.322940243593568, 48.175422315154755 ] } },
{ "type": "Feature", "properties": { "name": "ROSENSTEINGASSE 48", "type": "municipal", "ZBEZ": "1702" }, "geometry": { "type": "Point", "coordinates": [ 16.32755364461789, 48.219807168831124 ] } },
{ "type": "Feature", "properties": { "name": "Friederike-Seidl-Hof", "type": "municipal", "ZBEZ": "0503" }, "geometry": { "type": "Point", "coordinates": [ 16.358188077954434, 48.188280289814564 ] } },
{ "type": "Feature", "properties": { "name": "PLUNKERGASSE 4-12", "type": "municipal", "ZBEZ": "1501" }, "geometry": { "type": "Point", "coordinates": [ 16.325820433041986, 48.199804888868002 ] } },
{ "type": "Feature", "properties": { "name": "ENGERTHSTRASSE 82", "type": "municipal", "ZBEZ": "2002" }, "geometry": { "type": "Point", "coordinates": [ 16.383831055321853, 48.240288629961213 ] } },
{ "type": "Feature", "properties": { "name": "MILLERGASSE 39", "type": "municipal", "ZBEZ": "0603" }, "geometry": { "type": "Point", "coordinates": [ 16.34176642261351, 48.194763560681167 ] } },
{ "type": "Feature", "properties": { "name": "UNT.WEISSGERBERSTR. 18-22", "type": "municipal", "ZBEZ": "0301" }, "geometry": { "type": "Point", "coordinates": [ 16.393647988116417, 48.209895715428466 ] } },
{ "type": "Feature", "properties": { "name": "MARKHOFGASSE 6", "type": "municipal", "ZBEZ": "0307" }, "geometry": { "type": "Point", "coordinates": [ 16.407155624164453, 48.194011283230381 ] } },
{ "type": "Feature", "properties": { "name": "FUENFHAUSGASSE 16-18", "type": "municipal", "ZBEZ": "1503" }, "geometry": { "type": "Point", "coordinates": [ 16.334736703262227, 48.190608203327372 ] } },
{ "type": "Feature", "properties": { "name": "WEYPRECHTGASSE 7", "type": "municipal", "ZBEZ": "1601" }, "geometry": { "type": "Point", "coordinates": [ 16.33438183231771, 48.214112778205475 ] } },
{ "type": "Feature", "properties": { "name": "GOERGENGASSE 8", "type": "municipal", "ZBEZ": "1908" }, "geometry": { "type": "Point", "coordinates": [ 16.333154164090004, 48.242776560498442 ] } },
{ "type": "Feature", "properties": { "name": "Christine-Busta-Hof", "type": "municipal", "ZBEZ": "1604" }, "geometry": { "type": "Point", "coordinates": [ 16.320471388586284, 48.211712651042987 ] } },
{ "type": "Feature", "properties": { "name": "RUDOLF-ZELLER-GASSE 4-8", "type": "municipal", "ZBEZ": "2309" }, "geometry": { "type": "Point", "coordinates": [ 16.285429321210831, 48.153305743578457 ] } },
{ "type": "Feature", "properties": { "name": "Rebechof", "type": "municipal", "ZBEZ": "1908" }, "geometry": { "type": "Point", "coordinates": [ 16.339170188961969, 48.242428401506054 ] } },
{ "type": "Feature", "properties": { "name": "HABERLGASSE 74", "type": "municipal", "ZBEZ": "1601" }, "geometry": { "type": "Point", "coordinates": [ 16.331564486186338, 48.21256159065809 ] } },
{ "type": "Feature", "properties": { "name": "BAUMGASSE 43", "type": "municipal", "ZBEZ": "0306" }, "geometry": { "type": "Point", "coordinates": [ 16.402302392264044, 48.194417102652579 ] } },
{ "type": "Feature", "properties": { "name": "GRINZINGER STRASSE 123-131", "type": "municipal", "ZBEZ": "1901" }, "geometry": { "type": "Point", "coordinates": [ 16.363039598905303, 48.254593204923879 ] } },
{ "type": "Feature", "properties": { "name": "LAINZER STRASSE 148", "type": "municipal", "ZBEZ": "1306" }, "geometry": { "type": "Point", "coordinates": [ 16.282999685972175, 48.176513755047168 ] } },
{ "type": "Feature", "properties": { "name": "PFEILGASSE 10-12", "type": "municipal", "ZBEZ": "0802" }, "geometry": { "type": "Point", "coordinates": [ 16.347131081714654, 48.20863404237371 ] } },
{ "type": "Feature", "properties": { "name": "LEITGEBGASSE 3", "type": "municipal", "ZBEZ": "0503" }, "geometry": { "type": "Point", "coordinates": [ 16.354976913261407, 48.184167957295074 ] } },
{ "type": "Feature", "properties": { "name": "MILDEPLATZ 3", "type": "municipal", "ZBEZ": "1605" }, "geometry": { "type": "Point", "coordinates": [ 16.312104401924131, 48.215025489967388 ] } },
{ "type": "Feature", "properties": { "name": "GRABNERGASSE 11-13", "type": "municipal", "ZBEZ": "0602" }, "geometry": { "type": "Point", "coordinates": [ 16.349178260242741, 48.191182652148996 ] } },
{ "type": "Feature", "properties": { "name": "FERNKORNGASSE 100", "type": "municipal", "ZBEZ": "1010" }, "geometry": { "type": "Point", "coordinates": [ 16.361295527475079, 48.166855317687634 ] } },
{ "type": "Feature", "properties": { "name": "HERMANN-PACHER-GASSE 2", "type": "municipal", "ZBEZ": "1805" }, "geometry": { "type": "Point", "coordinates": [ 16.319733969880449, 48.239626578560134 ] } },
{ "type": "Feature", "properties": { "name": "SIEBENBRUNNENGASSE 63", "type": "municipal", "ZBEZ": "0503" }, "geometry": { "type": "Point", "coordinates": [ 16.352505983975991, 48.184358331177499 ] } },
{ "type": "Feature", "properties": { "name": "ROBERT-HAMERLING-G. 15-17", "type": "municipal", "ZBEZ": "1503" }, "geometry": { "type": "Point", "coordinates": [ 16.336051707717932, 48.193382794227922 ] } },
{ "type": "Feature", "properties": { "name": "KARL-GRUEBL-WEG 39-41", "type": "municipal", "ZBEZ": "2222" }, "geometry": { "type": "Point", "coordinates": [ 16.46552417879802, 48.222899875448036 ] } },
{ "type": "Feature", "properties": { "name": "LAAER-BERG-STRASSE 34-38", "type": "municipal", "ZBEZ": "1023" }, "geometry": { "type": "Point", "coordinates": [ 16.384979374873488, 48.168055143768328 ] } },
{ "type": "Feature", "properties": { "name": "FESSTGASSE 16", "type": "municipal", "ZBEZ": "1604" }, "geometry": { "type": "Point", "coordinates": [ 16.325543042558344, 48.212457926819695 ] } },
{ "type": "Feature", "properties": { "name": "ANSCHUETZGASSE 8A", "type": "municipal", "ZBEZ": "1505" }, "geometry": { "type": "Point", "coordinates": [ 16.324040992258464, 48.186702713623951 ] } },
{ "type": "Feature", "properties": { "name": "RASUMOFSKYGASSE 22", "type": "municipal", "ZBEZ": "0302" }, "geometry": { "type": "Point", "coordinates": [ 16.391831332194087, 48.20418440959304 ] } },
{ "type": "Feature", "properties": { "name": "LASSALLESTRASSE 24", "type": "municipal", "ZBEZ": "0207" }, "geometry": { "type": "Point", "coordinates": [ 16.398803410484305, 48.222091987751583 ] } },
{ "type": "Feature", "properties": { "name": "PASETTISTRASSE 9-21", "type": "municipal", "ZBEZ": "2007" }, "geometry": { "type": "Point", "coordinates": [ 16.376877974419102, 48.24242326092179 ] } },
{ "type": "Feature", "properties": { "name": "KROTTENBACHSTRASSE 183", "type": "municipal", "ZBEZ": "1910" }, "geometry": { "type": "Point", "coordinates": [ 16.320232882585337, 48.24358280887401 ] } },
{ "type": "Feature", "properties": { "name": "ROEGERGASSE 6", "type": "municipal", "ZBEZ": "0902" }, "geometry": { "type": "Point", "coordinates": [ 16.366438750112277, 48.222794901651845 ] } },
{ "type": "Feature", "properties": { "name": "DR.-EBERLE-GASSE 2", "type": "municipal", "ZBEZ": "1011" }, "geometry": { "type": "Point", "coordinates": [ 16.375532476898208, 48.162403508590231 ] } },
{ "type": "Feature", "properties": { "name": "JOHANN-GOTTEK-GASSE 18", "type": "municipal", "ZBEZ": "2303" }, "geometry": { "type": "Point", "coordinates": [ 16.325444959822807, 48.150498591448695 ] } },
{ "type": "Feature", "properties": { "name": "CASTELLIGASSE 3", "type": "municipal", "ZBEZ": "0501" }, "geometry": { "type": "Point", "coordinates": [ 16.359488014235339, 48.18948307260878 ] } },
{ "type": "Feature", "properties": { "name": "MATTHAEUSGASSE 3", "type": "municipal", "ZBEZ": "0301" }, "geometry": { "type": "Point", "coordinates": [ 16.388420671597345, 48.210688764342301 ] } },
{ "type": "Feature", "properties": { "name": "LEVASSEURGASSE 5", "type": "municipal", "ZBEZ": "2307" }, "geometry": { "type": "Point", "coordinates": [ 16.29483911972595, 48.146591687843504 ] } },
{ "type": "Feature", "properties": { "name": "RAINERGASSE 26-28", "type": "municipal", "ZBEZ": "0403" }, "geometry": { "type": "Point", "coordinates": [ 16.366141650004625, 48.187913717194981 ] } },
{ "type": "Feature", "properties": { "name": "HOEFERGASSE 9-11", "type": "municipal", "ZBEZ": "0903" }, "geometry": { "type": "Point", "coordinates": [ 16.349792035933724, 48.217347484483099 ] } },
{ "type": "Feature", "properties": { "name": "RECHTE WIENZEILE 69", "type": "municipal", "ZBEZ": "0501" }, "geometry": { "type": "Point", "coordinates": [ 16.355135544070656, 48.194964638279238 ] } },
{ "type": "Feature", "properties": { "name": "PROMENADEGASSE 19A", "type": "municipal", "ZBEZ": "1705" }, "geometry": { "type": "Point", "coordinates": [ 16.29190727489074, 48.229814494054231 ] } },
{ "type": "Feature", "properties": { "name": "VORGARTENSTRASSE 31-35", "type": "municipal", "ZBEZ": "2007" }, "geometry": { "type": "Point", "coordinates": [ 16.380723366928638, 48.243239056274319 ] } },
{ "type": "Feature", "properties": { "name": "Oscar-Helmer-Hof", "type": "municipal", "ZBEZ": "2114" }, "geometry": { "type": "Point", "coordinates": [ 16.38281622521087, 48.292375625921657 ] } },
{ "type": "Feature", "properties": { "name": "GRUENGASSE 14", "type": "municipal", "ZBEZ": "0501" }, "geometry": { "type": "Point", "coordinates": [ 16.357387544305695, 48.194830267855778 ] } },
{ "type": "Feature", "properties": { "name": "BREITENSEER STRASSE 108", "type": "municipal", "ZBEZ": "1405" }, "geometry": { "type": "Point", "coordinates": [ 16.298625735777648, 48.20322846569907 ] } },
{ "type": "Feature", "properties": { "name": "EICHENSTRASSE 50-52", "type": "municipal", "ZBEZ": "1204" }, "geometry": { "type": "Point", "coordinates": [ 16.335036736413233, 48.175492170965967 ] } },
{ "type": "Feature", "properties": { "name": "LEITERMAYERGASSE 52", "type": "municipal", "ZBEZ": "1803" }, "geometry": { "type": "Point", "coordinates": [ 16.339225937208017, 48.22520658794533 ] } },
{ "type": "Feature", "properties": { "name": "ANTON-LANGER-GASSE 39-41", "type": "municipal", "ZBEZ": "1308" }, "geometry": { "type": "Point", "coordinates": [ 16.283184961327407, 48.169899610352701 ] } },
{ "type": "Feature", "properties": { "name": "WAGRAMER STRASSE 95", "type": "municipal", "ZBEZ": "2213" }, "geometry": { "type": "Point", "coordinates": [ 16.437047896805652, 48.245006623451118 ] } },
{ "type": "Feature", "properties": { "name": "ST.-MICHAEL-GASSE 11", "type": "municipal", "ZBEZ": "2105" }, "geometry": { "type": "Point", "coordinates": [ 16.446709275763521, 48.271024810006139 ] } },
{ "type": "Feature", "properties": { "name": "MARGARETENSTRASSE 108", "type": "municipal", "ZBEZ": "0504" }, "geometry": { "type": "Point", "coordinates": [ 16.354810230542476, 48.189239060832591 ] } },
{ "type": "Feature", "properties": { "name": "Franz-Rosenberger-Hof", "type": "municipal", "ZBEZ": "1302" }, "geometry": { "type": "Point", "coordinates": [ 16.284943409720004, 48.180355740262002 ] } },
{ "type": "Feature", "properties": { "name": "KROTTENBACHSTRASSE 39-41", "type": "municipal", "ZBEZ": "1909" }, "geometry": { "type": "Point", "coordinates": [ 16.337942908977734, 48.24027990135852 ] } },
{ "type": "Feature", "properties": { "name": "Quarinhof", "type": "municipal", "ZBEZ": "1008" }, "geometry": { "type": "Point", "coordinates": [ 16.354436084911686, 48.171679893881965 ] } },
{ "type": "Feature", "properties": { "name": "CERVANTESGASSE 9", "type": "municipal", "ZBEZ": "1402" }, "geometry": { "type": "Point", "coordinates": [ 16.309415314449407, 48.197410077418105 ] } },
{ "type": "Feature", "properties": { "name": "KHUNNGASSE 6-8", "type": "municipal", "ZBEZ": "0304" }, "geometry": { "type": "Point", "coordinates": [ 16.388251877312154, 48.190128737621208 ] } },
{ "type": "Feature", "properties": { "name": "WAGRAMER STRASSE 164-168", "type": "municipal", "ZBEZ": "2208" }, "geometry": { "type": "Point", "coordinates": [ 16.44611003553327, 48.251588239439947 ] } },
{ "type": "Feature", "properties": { "name": "Harry-S.-Truman-Hof", "type": "municipal", "ZBEZ": "2309" }, "geometry": { "type": "Point", "coordinates": [ 16.285503225032386, 48.151288354921192 ] } },
{ "type": "Feature", "properties": { "name": "FRANKLINSTRASSE 20", "type": "municipal", "ZBEZ": "2126" }, "geometry": { "type": "Point", "coordinates": [ 16.400588104656901, 48.254301826111174 ] } },
{ "type": "Feature", "properties": { "name": "MELANGASSE 3", "type": "municipal", "ZBEZ": "2209" }, "geometry": { "type": "Point", "coordinates": [ 16.442112783540551, 48.258921035886033 ] } },
{ "type": "Feature", "properties": { "name": "GOLDSCHLAGSTRASSE 148-158", "type": "municipal", "ZBEZ": "1404" }, "geometry": { "type": "Point", "coordinates": [ 16.306857432532418, 48.196365754392943 ] } },
{ "type": "Feature", "properties": { "name": "CANAVESEGASSE 9-15", "type": "municipal", "ZBEZ": "2307" }, "geometry": { "type": "Point", "coordinates": [ 16.293653631972852, 48.146500765266445 ] } },
{ "type": "Feature", "properties": { "name": "ZANASCHKAGASSE 12", "type": "municipal", "ZBEZ": "1209" }, "geometry": { "type": "Point", "coordinates": [ 16.326951261382415, 48.158270284367816 ] } },
{ "type": "Feature", "properties": { "name": "HOFGASSE 2", "type": "municipal", "ZBEZ": "0501" }, "geometry": { "type": "Point", "coordinates": [ 16.358938135942928, 48.190935168097809 ] } },
{ "type": "Feature", "properties": { "name": "Franz-Ramel-Hof", "type": "municipal", "ZBEZ": "0404" }, "geometry": { "type": "Point", "coordinates": [ 16.370961711795726, 48.189891697690896 ] } },
{ "type": "Feature", "properties": { "name": "LOESCHENKOHLGASSE 3", "type": "municipal", "ZBEZ": "1501" }, "geometry": { "type": "Point", "coordinates": [ 16.33093821887239, 48.200854412218561 ] } },
{ "type": "Feature", "properties": { "name": "UNTERE AUGARTENSTR. 15-17", "type": "municipal", "ZBEZ": "0203" }, "geometry": { "type": "Point", "coordinates": [ 16.372614583238494, 48.221179552249502 ] } },
{ "type": "Feature", "properties": { "name": "WIRERSTRASSE 6-14", "type": "municipal", "ZBEZ": "1003" }, "geometry": { "type": "Point", "coordinates": [ 16.377162566187334, 48.16925525855914 ] } },
{ "type": "Feature", "properties": { "name": "HUTWEIDENGASSE 23-27", "type": "municipal", "ZBEZ": "1908" }, "geometry": { "type": "Point", "coordinates": [ 16.337468210331547, 48.241627068006196 ] } },
{ "type": "Feature", "properties": { "name": "STAUDGASSE 48-50", "type": "municipal", "ZBEZ": "1803" }, "geometry": { "type": "Point", "coordinates": [ 16.338600237056536, 48.224114064461098 ] } },
{ "type": "Feature", "properties": { "name": "TRAUTTMANSDORFFGASSE 22", "type": "municipal", "ZBEZ": "1302" }, "geometry": { "type": "Point", "coordinates": [ 16.297441252134391, 48.184989985427642 ] } },
{ "type": "Feature", "properties": { "name": "PUELSLGASSE 10", "type": "municipal", "ZBEZ": "2311" }, "geometry": { "type": "Point", "coordinates": [ 16.278212471004561, 48.1352428538463 ] } },
{ "type": "Feature", "properties": { "name": "SCHINNAGLGASSE 8", "type": "municipal", "ZBEZ": "1602" }, "geometry": { "type": "Point", "coordinates": [ 16.333156731830513, 48.205052179249357 ] } },
{ "type": "Feature", "properties": { "name": "REITHOFFERPLATZ 10", "type": "municipal", "ZBEZ": "1502" }, "geometry": { "type": "Point", "coordinates": [ 16.330439452095593, 48.198095960262542 ] } },
{ "type": "Feature", "properties": { "name": "WEIGLGASSE 11", "type": "municipal", "ZBEZ": "1505" }, "geometry": { "type": "Point", "coordinates": [ 16.323189523401606, 48.186903043117354 ] } },
{ "type": "Feature", "properties": { "name": "JOH.-NEP.-BERGER-PL. 7", "type": "municipal", "ZBEZ": "1604" }, "geometry": { "type": "Point", "coordinates": [ 16.325937064872221, 48.212282118628345 ] } },
{ "type": "Feature", "properties": { "name": "RUSTENSCHACHERALLEE 44-56", "type": "municipal", "ZBEZ": "0206" }, "geometry": { "type": "Point", "coordinates": [ 16.404597092535262, 48.203446641869952 ] } },
{ "type": "Feature", "properties": { "name": "Friedrich-Holomek-Hof", "type": "municipal", "ZBEZ": "1802" }, "geometry": { "type": "Point", "coordinates": [ 16.342354215281524, 48.225853451778555 ] } },
{ "type": "Feature", "properties": { "name": "Felix-Swoboda Hof", "type": "municipal", "ZBEZ": "1105" }, "geometry": { "type": "Point", "coordinates": [ 16.414240689552159, 48.164125464939005 ] } },
{ "type": "Feature", "properties": { "name": "GABLENZGASSE 41", "type": "municipal", "ZBEZ": "1501" }, "geometry": { "type": "Point", "coordinates": [ 16.326255147667151, 48.204829905206211 ] } },
{ "type": "Feature", "properties": { "name": "FENDIGASSE 19-21", "type": "municipal", "ZBEZ": "0502" }, "geometry": { "type": "Point", "coordinates": [ 16.353087900852, 48.182701059347117 ] } },
{ "type": "Feature", "properties": { "name": "RIESGASSE 4", "type": "municipal", "ZBEZ": "0309" }, "geometry": { "type": "Point", "coordinates": [ 16.388931503983112, 48.198567586655045 ] } },
{ "type": "Feature", "properties": { "name": "FEUCHTERSLEBENGASSE 67", "type": "municipal", "ZBEZ": "1023" }, "geometry": { "type": "Point", "coordinates": [ 16.385596657228302, 48.170152618347124 ] } },
{ "type": "Feature", "properties": { "name": "Wilhelm-Svetelsky-Hof", "type": "municipal", "ZBEZ": "1103" }, "geometry": { "type": "Point", "coordinates": [ 16.412845628644607, 48.177183574556466 ] } },
{ "type": "Feature", "properties": { "name": "HICKELGASSE 11", "type": "municipal", "ZBEZ": "1402" }, "geometry": { "type": "Point", "coordinates": [ 16.309749611713482, 48.197154351362684 ] } },
{ "type": "Feature", "properties": { "name": "RECHBERGGASSE 16-20", "type": "municipal", "ZBEZ": "1003" }, "geometry": { "type": "Point", "coordinates": [ 16.37918489175344, 48.168322923675724 ] } },
{ "type": "Feature", "properties": { "name": "GOLDEGGASSE 18", "type": "municipal", "ZBEZ": "0402" }, "geometry": { "type": "Point", "coordinates": [ 16.376753256704152, 48.189836676359484 ] } },
{ "type": "Feature", "properties": { "name": "RICHARD-WAGNER-PLATZ 3", "type": "municipal", "ZBEZ": "1610" }, "geometry": { "type": "Point", "coordinates": [ 16.32805250591322, 48.209497869918323 ] } },
{ "type": "Feature", "properties": { "name": "GOLDSCHLAGSTRASSE 44", "type": "municipal", "ZBEZ": "1502" }, "geometry": { "type": "Point", "coordinates": [ 16.329505554455739, 48.197387817830048 ] } },
{ "type": "Feature", "properties": { "name": "WOLKERSBERGENSTRASSE 10", "type": "municipal", "ZBEZ": "1308" }, "geometry": { "type": "Point", "coordinates": [ 16.281536298489893, 48.168612485638711 ] } },
{ "type": "Feature", "properties": { "name": "GEBLERGASSE 85", "type": "municipal", "ZBEZ": "1702" }, "geometry": { "type": "Point", "coordinates": [ 16.326264240336435, 48.216467037838257 ] } },
{ "type": "Feature", "properties": { "name": "KENDLERSTR. 43", "type": "municipal", "ZBEZ": "1603" }, "geometry": { "type": "Point", "coordinates": [ 16.309177478837007, 48.204760490309688 ] } },
{ "type": "Feature", "properties": { "name": "HANDELSKAI 210", "type": "municipal", "ZBEZ": "0209" }, "geometry": { "type": "Point", "coordinates": [ 16.40762469643532, 48.223444562396544 ] } },
{ "type": "Feature", "properties": { "name": "HUTTENGASSE 2-4", "type": "municipal", "ZBEZ": "1401" }, "geometry": { "type": "Point", "coordinates": [ 16.307807639647205, 48.202522132726159 ] } },
{ "type": "Feature", "properties": { "name": "Anton-Matourek-Hof", "type": "municipal", "ZBEZ": "1503" }, "geometry": { "type": "Point", "coordinates": [ 16.327134374280735, 48.192657032339227 ] } },
{ "type": "Feature", "properties": { "name": "TIVOLIGASSE 13", "type": "municipal", "ZBEZ": "1205" }, "geometry": { "type": "Point", "coordinates": [ 16.327887788550299, 48.179175795749813 ] } },
{ "type": "Feature", "properties": { "name": "RAXSTRASSE 38", "type": "municipal", "ZBEZ": "1010" }, "geometry": { "type": "Point", "coordinates": [ 16.358014140615314, 48.167025256616114 ] } },
{ "type": "Feature", "properties": { "name": "KUDLICHGASSE 12", "type": "municipal", "ZBEZ": "1002" }, "geometry": { "type": "Point", "coordinates": [ 16.387241165067334, 48.171870579906198 ] } },
{ "type": "Feature", "properties": { "name": "ROTENMUEHLGASSE 64", "type": "municipal", "ZBEZ": "1207" }, "geometry": { "type": "Point", "coordinates": [ 16.321416393381689, 48.177290619420283 ] } },
{ "type": "Feature", "properties": { "name": "Johann-Kaps-Hof", "type": "municipal", "ZBEZ": "2006" }, "geometry": { "type": "Point", "coordinates": [ 16.372750426687599, 48.236222495744101 ] } },
{ "type": "Feature", "properties": { "name": "Alfred-Wunsch-Hof", "type": "municipal", "ZBEZ": "1103" }, "geometry": { "type": "Point", "coordinates": [ 16.412803199804596, 48.173569249978712 ] } },
{ "type": "Feature", "properties": { "name": "Leopold-Thaller-Hof", "type": "municipal", "ZBEZ": "0306" }, "geometry": { "type": "Point", "coordinates": [ 16.403222464033245, 48.19405167519129 ] } },
{ "type": "Feature", "properties": { "name": "KLEINE NEUGASSE 21", "type": "municipal", "ZBEZ": "0501" }, "geometry": { "type": "Point", "coordinates": [ 16.36223465025995, 48.193323762433344 ] } },
{ "type": "Feature", "properties": { "name": "WIEDNER HAUPTSTRASSE 119", "type": "municipal", "ZBEZ": "0502" }, "geometry": { "type": "Point", "coordinates": [ 16.361430367665349, 48.183841056180427 ] } },
{ "type": "Feature", "properties": { "name": "KAISER-EBERSDF.-STR. 328", "type": "municipal", "ZBEZ": "1111" }, "geometry": { "type": "Point", "coordinates": [ 16.470771389020634, 48.157889423480107 ] } },
{ "type": "Feature", "properties": { "name": "LUDWIG-KOESSLER-PL. 3", "type": "municipal", "ZBEZ": "0306" }, "geometry": { "type": "Point", "coordinates": [ 16.408943801078387, 48.196099328595309 ] } },
{ "type": "Feature", "properties": { "name": "DUSTMANNWEG 27", "type": "municipal", "ZBEZ": "1608" }, "geometry": { "type": "Point", "coordinates": [ 16.287231629879795, 48.207341056278651 ] } },
{ "type": "Feature", "properties": { "name": "Olof-Palme-Hof", "type": "municipal", "ZBEZ": "1020" }, "geometry": { "type": "Point", "coordinates": [ 16.383890555068753, 48.151617144392176 ] } },
{ "type": "Feature", "properties": { "name": "ORTNERGASSE 5", "type": "municipal", "ZBEZ": "1504" }, "geometry": { "type": "Point", "coordinates": [ 16.331146279748687, 48.185472327819589 ] } },
{ "type": "Feature", "properties": { "name": "GEIBELGASSE 10", "type": "municipal", "ZBEZ": "1503" }, "geometry": { "type": "Point", "coordinates": [ 16.332721153974671, 48.188774584557663 ] } },
{ "type": "Feature", "properties": { "name": "WEIMARER STRASSE 1", "type": "municipal", "ZBEZ": "1802" }, "geometry": { "type": "Point", "coordinates": [ 16.339748471513797, 48.226102903543136 ] } },
{ "type": "Feature", "properties": { "name": "WOLFGANGGASSE 54", "type": "municipal", "ZBEZ": "1202" }, "geometry": { "type": "Point", "coordinates": [ 16.344427982429661, 48.179841725954638 ] } },
{ "type": "Feature", "properties": { "name": "DERNJACGASSE 4", "type": "municipal", "ZBEZ": "2304" }, "geometry": { "type": "Point", "coordinates": [ 16.31635263403556, 48.139084229459506 ] } },
{ "type": "Feature", "properties": { "name": "Großmannhof", "type": "municipal", "ZBEZ": "2005" }, "geometry": { "type": "Point", "coordinates": [ 16.364630310979269, 48.23290187344854 ] } },
{ "type": "Feature", "properties": { "name": "GREGORYGASSE 20-26", "type": "municipal", "ZBEZ": "2319" }, "geometry": { "type": "Point", "coordinates": [ 16.305710790893144, 48.150589819453984 ] } },
{ "type": "Feature", "properties": { "name": "SCHENKENDORFGASSE 49-53", "type": "municipal", "ZBEZ": "2123" }, "geometry": { "type": "Point", "coordinates": [ 16.411166526030186, 48.255058177534366 ] } },
{ "type": "Feature", "properties": { "name": "GRINZINGER STRASSE 2", "type": "municipal", "ZBEZ": "1905" }, "geometry": { "type": "Point", "coordinates": [ 16.343437578795683, 48.254374677797379 ] } },
{ "type": "Feature", "properties": { "name": "MARKHOFGASSE 20", "type": "municipal", "ZBEZ": "0307" }, "geometry": { "type": "Point", "coordinates": [ 16.408547505147251, 48.192627169407835 ] } },
{ "type": "Feature", "properties": { "name": "WERNDLGASSE 14-18", "type": "municipal", "ZBEZ": "2121" }, "geometry": { "type": "Point", "coordinates": [ 16.403907327492931, 48.26138536453238 ] } },
{ "type": "Feature", "properties": { "name": "BREITENFURTER STR. 242", "type": "municipal", "ZBEZ": "2307" }, "geometry": { "type": "Point", "coordinates": [ 16.29567087231645, 48.146125620972768 ] } },
{ "type": "Feature", "properties": { "name": "GRIMMGASSE 19", "type": "municipal", "ZBEZ": "1505" }, "geometry": { "type": "Point", "coordinates": [ 16.327569416694672, 48.188268688681369 ] } },
{ "type": "Feature", "properties": { "name": "HEILIGENSTAEDT.STR. 129", "type": "municipal", "ZBEZ": "1902" }, "geometry": { "type": "Point", "coordinates": [ 16.362198575166502, 48.250120276241915 ] } },
{ "type": "Feature", "properties": { "name": "NEULINGGASSE 39", "type": "municipal", "ZBEZ": "0303" }, "geometry": { "type": "Point", "coordinates": [ 16.38160094653146, 48.198899163129049 ] } },
{ "type": "Feature", "properties": { "name": "OELWEINGASSE 7", "type": "municipal", "ZBEZ": "1505" }, "geometry": { "type": "Point", "coordinates": [ 16.329416826790649, 48.188857076893228 ] } },
{ "type": "Feature", "properties": { "name": "GIESSAUFGASSE 26", "type": "municipal", "ZBEZ": "0503" }, "geometry": { "type": "Point", "coordinates": [ 16.347572109313294, 48.185605983439622 ] } },
{ "type": "Feature", "properties": { "name": "Dr.-Gerhard-Weißenberg-Hof", "type": "municipal", "ZBEZ": "1504" }, "geometry": { "type": "Point", "coordinates": [ 16.32788397935699, 48.184932352231193 ] } },
{ "type": "Feature", "properties": { "name": "LANGOBARDENSTRASSE 207", "type": "municipal", "ZBEZ": "2223" }, "geometry": { "type": "Point", "coordinates": [ 16.481161695738251, 48.217536753556345 ] } },
{ "type": "Feature", "properties": { "name": "VORGARTENSTRASSE 198", "type": "municipal", "ZBEZ": "0207" }, "geometry": { "type": "Point", "coordinates": [ 16.408649429417963, 48.218532734758092 ] } },
{ "type": "Feature", "properties": { "name": "WOHLMUTSTRASSE 6", "type": "municipal", "ZBEZ": "0207" }, "geometry": { "type": "Point", "coordinates": [ 16.401397302034106, 48.221148503704228 ] } },
{ "type": "Feature", "properties": { "name": "QUELLENPLATZ 4", "type": "municipal", "ZBEZ": "1004" }, "geometry": { "type": "Point", "coordinates": [ 16.373927079715585, 48.175303736704521 ] } },
{ "type": "Feature", "properties": { "name": "Appelhof", "type": "municipal", "ZBEZ": "2118" }, "geometry": { "type": "Point", "coordinates": [ 16.392970853377705, 48.26469048758517 ] } },
{ "type": "Feature", "properties": { "name": "SILBERGASSE 4", "type": "municipal", "ZBEZ": "1904" }, "geometry": { "type": "Point", "coordinates": [ 16.349646242348534, 48.243762179026987 ] } },
{ "type": "Feature", "properties": { "name": "LIEBHARTSGASSE 54", "type": "municipal", "ZBEZ": "1601" }, "geometry": { "type": "Point", "coordinates": [ 16.331534553317177, 48.210030453337438 ] } },
{ "type": "Feature", "properties": { "name": "ALLIOGASSE 24", "type": "municipal", "ZBEZ": "1501" }, "geometry": { "type": "Point", "coordinates": [ 16.328629042611531, 48.20390712307875 ] } },
{ "type": "Feature", "properties": { "name": "ANSCHUETZGASSE 15", "type": "municipal", "ZBEZ": "1505" }, "geometry": { "type": "Point", "coordinates": [ 16.322615198638712, 48.187836978289482 ] } },
{ "type": "Feature", "properties": { "name": "BERZELIUSPLATZ 1", "type": "municipal", "ZBEZ": "2109" }, "geometry": { "type": "Point", "coordinates": [ 16.411420210029615, 48.277157499226455 ] } },
{ "type": "Feature", "properties": { "name": "SANATORIUMSTRASSE 19-25", "type": "municipal", "ZBEZ": "1408" }, "geometry": { "type": "Point", "coordinates": [ 16.274683701837262, 48.204384625733169 ] } },
{ "type": "Feature", "properties": { "name": "MARINELLIGASSE 10-10A", "type": "municipal", "ZBEZ": "0202" }, "geometry": { "type": "Point", "coordinates": [ 16.387300105195607, 48.225248095356989 ] } },
{ "type": "Feature", "properties": { "name": "Südtiroler Hof", "type": "municipal", "ZBEZ": "0402" }, "geometry": { "type": "Point", "coordinates": [ 16.375128750187514, 48.187128811463808 ] } },
{ "type": "Feature", "properties": { "name": "RUSSBERGSTRASSE 94-100", "type": "municipal", "ZBEZ": "2113" }, "geometry": { "type": "Point", "coordinates": [ 16.389450336210039, 48.29599429851298 ] } },
{ "type": "Feature", "properties": { "name": "SCHELLEINGASSE 27-29", "type": "municipal", "ZBEZ": "0404" }, "geometry": { "type": "Point", "coordinates": [ 16.371533147580969, 48.186146890347466 ] } },
{ "type": "Feature", "properties": { "name": "FAERBERMUEHLGASSE 9", "type": "municipal", "ZBEZ": "2311" }, "geometry": { "type": "Point", "coordinates": [ 16.283093944022205, 48.133589790584061 ] } },
{ "type": "Feature", "properties": { "name": "RUDOLFSPLATZ 8", "type": "municipal", "ZBEZ": "0105" }, "geometry": { "type": "Point", "coordinates": [ 16.372554321387014, 48.213550120685738 ] } },
{ "type": "Feature", "properties": { "name": "ARLTGASSE 38-40", "type": "municipal", "ZBEZ": "1610" }, "geometry": { "type": "Point", "coordinates": [ 16.319595219303419, 48.209637535816093 ] } },
{ "type": "Feature", "properties": { "name": "FUENFHAUSGASSE 14", "type": "municipal", "ZBEZ": "1503" }, "geometry": { "type": "Point", "coordinates": [ 16.334910454500161, 48.190302395853777 ] } },
{ "type": "Feature", "properties": { "name": "ERDBERGSTRASSE 16-28", "type": "municipal", "ZBEZ": "0302" }, "geometry": { "type": "Point", "coordinates": [ 16.394566759486125, 48.202059408965404 ] } },
{ "type": "Feature", "properties": { "name": "LANDSTR.HAUPTSTR. 129", "type": "municipal", "ZBEZ": "0306" }, "geometry": { "type": "Point", "coordinates": [ 16.39676779971898, 48.195694213623952 ] } },
{ "type": "Feature", "properties": { "name": "SCHOENBRUNNER STR. 242", "type": "municipal", "ZBEZ": "1206" }, "geometry": { "type": "Point", "coordinates": [ 16.32435181709544, 48.183292275499682 ] } },
{ "type": "Feature", "properties": { "name": "SALISSTRASSE 5-15", "type": "municipal", "ZBEZ": "1406" }, "geometry": { "type": "Point", "coordinates": [ 16.284881452669634, 48.198077443063056 ] } },
{ "type": "Feature", "properties": { "name": "BREITENFURTER STR. 463-465", "type": "municipal", "ZBEZ": "2312" }, "geometry": { "type": "Point", "coordinates": [ 16.26050651820853, 48.137965022744972 ] } },
{ "type": "Feature", "properties": { "name": "WIEDNER HAUPTSTRASSE 103", "type": "municipal", "ZBEZ": "0502" }, "geometry": { "type": "Point", "coordinates": [ 16.362835453818434, 48.185243844664591 ] } },
{ "type": "Feature", "properties": { "name": "ZIRKUSGASSE 33", "type": "municipal", "ZBEZ": "0204" }, "geometry": { "type": "Point", "coordinates": [ 16.384850640342332, 48.217157391055075 ] } },
{ "type": "Feature", "properties": { "name": "LORYSTRASSE 57", "type": "municipal", "ZBEZ": "1103" }, "geometry": { "type": "Point", "coordinates": [ 16.414956446369768, 48.171061032905513 ] } },
{ "type": "Feature", "properties": { "name": "FELDGASSE 19", "type": "municipal", "ZBEZ": "0803" }, "geometry": { "type": "Point", "coordinates": [ 16.345456835908621, 48.21471804588456 ] } },
{ "type": "Feature", "properties": { "name": "SCHLACHTHAUSGASSE 44", "type": "municipal", "ZBEZ": "0306" }, "geometry": { "type": "Point", "coordinates": [ 16.402206314017281, 48.191582152715249 ] } },
{ "type": "Feature", "properties": { "name": "THALIASTRASSE 113", "type": "municipal", "ZBEZ": "1603" }, "geometry": { "type": "Point", "coordinates": [ 16.316226219775888, 48.211769437964115 ] } },
{ "type": "Feature", "properties": { "name": "ECONOMOGASSE 1", "type": "municipal", "ZBEZ": "1016" }, "geometry": { "type": "Point", "coordinates": [ 16.396736400443221, 48.154296524017852 ] } },
{ "type": "Feature", "properties": { "name": "OSWALDGASSE 14-22", "type": "municipal", "ZBEZ": "1208" }, "geometry": { "type": "Point", "coordinates": [ 16.325873524208038, 48.169957541194997 ] } },
{ "type": "Feature", "properties": { "name": "QUADENSTRASSE 65-67", "type": "municipal", "ZBEZ": "2206" }, "geometry": { "type": "Point", "coordinates": [ 16.484502790685323, 48.239611401063577 ] } },
{ "type": "Feature", "properties": { "name": "SAGEDERGASSE 7-11", "type": "municipal", "ZBEZ": "1210" }, "geometry": { "type": "Point", "coordinates": [ 16.320504170200138, 48.159708944737027 ] } },
{ "type": "Feature", "properties": { "name": "Theodor-Körner-Hof", "type": "municipal", "ZBEZ": "0502" }, "geometry": { "type": "Point", "coordinates": [ 16.355837360635309, 48.181403221338634 ] } },
{ "type": "Feature", "properties": { "name": "YBBSSTRASSE 31-33", "type": "municipal", "ZBEZ": "0207" }, "geometry": { "type": "Point", "coordinates": [ 16.400386010864135, 48.222395848357287 ] } },
{ "type": "Feature", "properties": { "name": "SCHADINAGASSE 14-16", "type": "municipal", "ZBEZ": "1703" }, "geometry": { "type": "Point", "coordinates": [ 16.320898648849191, 48.223881456863687 ] } },
{ "type": "Feature", "properties": { "name": "REICHSAPFELGASSE 9", "type": "municipal", "ZBEZ": "1505" }, "geometry": { "type": "Point", "coordinates": [ 16.324720643489741, 48.187418290410811 ] } },
{ "type": "Feature", "properties": { "name": "ALLERHEILIGENGASSE 5", "type": "municipal", "ZBEZ": "2002" }, "geometry": { "type": "Point", "coordinates": [ 16.383259897743994, 48.237679449675731 ] } },
{ "type": "Feature", "properties": { "name": "ANSCHUETZGASSE 10", "type": "municipal", "ZBEZ": "1505" }, "geometry": { "type": "Point", "coordinates": [ 16.323858726144447, 48.187060171591142 ] } },
{ "type": "Feature", "properties": { "name": "FAERBERMUEHLGASSE 11", "type": "municipal", "ZBEZ": "2311" }, "geometry": { "type": "Point", "coordinates": [ 16.28325121043633, 48.132908716510251 ] } },
{ "type": "Feature", "properties": { "name": "BECKMANNGASSE 66", "type": "municipal", "ZBEZ": "1506" }, "geometry": { "type": "Point", "coordinates": [ 16.314279290191788, 48.197488388378488 ] } },
{ "type": "Feature", "properties": { "name": "BREITENFURTER STR. 519-521", "type": "municipal", "ZBEZ": "2316" }, "geometry": { "type": "Point", "coordinates": [ 16.248907828978798, 48.136604625121905 ] } },
{ "type": "Feature", "properties": { "name": "Brunngraberhof", "type": "municipal", "ZBEZ": "1005" }, "geometry": { "type": "Point", "coordinates": [ 16.371128066234856, 48.173965209047921 ] } },
{ "type": "Feature", "properties": { "name": "GOLDSCHLAGSTRASSE 107", "type": "municipal", "ZBEZ": "1506" }, "geometry": { "type": "Point", "coordinates": [ 16.316454734043994, 48.194393434185088 ] } },
{ "type": "Feature", "properties": { "name": "STORCHENGASSE 22", "type": "municipal", "ZBEZ": "1504" }, "geometry": { "type": "Point", "coordinates": [ 16.33229515115406, 48.186138542912715 ] } },
{ "type": "Feature", "properties": { "name": "HUETTELDORFER STR. 3-5", "type": "municipal", "ZBEZ": "1502" }, "geometry": { "type": "Point", "coordinates": [ 16.33639821969172, 48.201126814460025 ] } },
{ "type": "Feature", "properties": { "name": "Leopold-Schwarz-Hof", "type": "municipal", "ZBEZ": "1102" }, "geometry": { "type": "Point", "coordinates": [ 16.412958321608262, 48.177994366907939 ] } },
{ "type": "Feature", "properties": { "name": "DRORYGASSE 8", "type": "municipal", "ZBEZ": "0310" }, "geometry": { "type": "Point", "coordinates": [ 16.403898297350977, 48.198775605427386 ] } },
{ "type": "Feature", "properties": { "name": "GSCHWANDNERGASSE 53-57", "type": "municipal", "ZBEZ": "1703" }, "geometry": { "type": "Point", "coordinates": [ 16.325591670834502, 48.220641030765492 ] } },
{ "type": "Feature", "properties": { "name": "SEYBELGASSE 3A", "type": "municipal", "ZBEZ": "2306" }, "geometry": { "type": "Point", "coordinates": [ 16.28854681722331, 48.136626463163026 ] } },
{ "type": "Feature", "properties": { "name": "ANTON-STOERCK-GASSE 53", "type": "municipal", "ZBEZ": "2118" }, "geometry": { "type": "Point", "coordinates": [ 16.386980380929668, 48.265470907740884 ] } },
{ "type": "Feature", "properties": { "name": "DIETRICHGASSE 35-37", "type": "municipal", "ZBEZ": "0310" }, "geometry": { "type": "Point", "coordinates": [ 16.40418299472595, 48.199217437232718 ] } },
{ "type": "Feature", "properties": { "name": "STROHGASSE 14F", "type": "municipal", "ZBEZ": "0303" }, "geometry": { "type": "Point", "coordinates": [ 16.38193600633431, 48.198378175434996 ] } },
{ "type": "Feature", "properties": { "name": "TALGASSE 2", "type": "municipal", "ZBEZ": "1503" }, "geometry": { "type": "Point", "coordinates": [ 16.334678843163182, 48.191720558431989 ] } },
{ "type": "Feature", "properties": { "name": "VALENTINGASSE 7", "type": "municipal", "ZBEZ": "2314" }, "geometry": { "type": "Point", "coordinates": [ 16.265743061225592, 48.149793051995559 ] } },
{ "type": "Feature", "properties": { "name": "ELISENSTRASSE 28-30", "type": "municipal", "ZBEZ": "2311" }, "geometry": { "type": "Point", "coordinates": [ 16.274495832094942, 48.135567915187451 ] } },
{ "type": "Feature", "properties": { "name": "OBERE AUGARTENSTR. 12-14", "type": "municipal", "ZBEZ": "0203" }, "geometry": { "type": "Point", "coordinates": [ 16.371819621380233, 48.224564699455478 ] } },
{ "type": "Feature", "properties": { "name": "DUERERGASSE 5", "type": "municipal", "ZBEZ": "0601" }, "geometry": { "type": "Point", "coordinates": [ 16.356213863014911, 48.197152540719109 ] } },
{ "type": "Feature", "properties": { "name": "Liskahof", "type": "municipal", "ZBEZ": "1404" }, "geometry": { "type": "Point", "coordinates": [ 16.297139492957481, 48.195646834801977 ] } },
{ "type": "Feature", "properties": { "name": "ARIBOGASSE 28", "type": "municipal", "ZBEZ": "2219" }, "geometry": { "type": "Point", "coordinates": [ 16.457855852145173, 48.224776916259074 ] } },
{ "type": "Feature", "properties": { "name": "Julius-Bermann-Hof", "type": "municipal", "ZBEZ": "0204" }, "geometry": { "type": "Point", "coordinates": [ 16.382206813166903, 48.214380547844918 ] } },
{ "type": "Feature", "properties": { "name": "Reumannhof", "type": "municipal", "ZBEZ": "0502" }, "geometry": { "type": "Point", "coordinates": [ 16.348004064424167, 48.182703067032108 ] } },
{ "type": "Feature", "properties": { "name": "MALFATTIGASSE 27-31", "type": "municipal", "ZBEZ": "1202" }, "geometry": { "type": "Point", "coordinates": [ 16.342014188157762, 48.180441516471276 ] } },
{ "type": "Feature", "properties": { "name": "DONAUFELDER STRASSE 44", "type": "municipal", "ZBEZ": "2123" }, "geometry": { "type": "Point", "coordinates": [ 16.413348344372807, 48.252960273426609 ] } },
{ "type": "Feature", "properties": { "name": "MARKOMANNENSTRASSE 27", "type": "municipal", "ZBEZ": "2208" }, "geometry": { "type": "Point", "coordinates": [ 16.459085224116038, 48.255924587984467 ] } },
{ "type": "Feature", "properties": { "name": "KROTTENBACHSTRASSE 104", "type": "municipal", "ZBEZ": "1908" }, "geometry": { "type": "Point", "coordinates": [ 16.328664223284001, 48.242393152679 ] } },
{ "type": "Feature", "properties": { "name": "JEDLERSDORFER STR. 294", "type": "municipal", "ZBEZ": "2102" }, "geometry": { "type": "Point", "coordinates": [ 16.414014062161723, 48.294145250340414 ] } },
{ "type": "Feature", "properties": { "name": "Schuhmeierhof", "type": "municipal", "ZBEZ": "1603" }, "geometry": { "type": "Point", "coordinates": [ 16.317384141974319, 48.209620006331591 ] } },
{ "type": "Feature", "properties": { "name": "WILHELM-OTTO-STRASSE 3", "type": "municipal", "ZBEZ": "1102" }, "geometry": { "type": "Point", "coordinates": [ 16.415425367069634, 48.180237230360255 ] } },
{ "type": "Feature", "properties": { "name": "DANKWARTGASSE 6", "type": "municipal", "ZBEZ": "1501" }, "geometry": { "type": "Point", "coordinates": [ 16.330591679842104, 48.203443525186685 ] } },
{ "type": "Feature", "properties": { "name": "ALTHANSTRASSE 29-31", "type": "municipal", "ZBEZ": "0901" }, "geometry": { "type": "Point", "coordinates": [ 16.359541349890673, 48.228446572376079 ] } },
{ "type": "Feature", "properties": { "name": "ERDBERGSTRASSE 126-130", "type": "municipal", "ZBEZ": "0306" }, "geometry": { "type": "Point", "coordinates": [ 16.40487429392455, 48.196454242067965 ] } },
{ "type": "Feature", "properties": { "name": "WINARSKYSTRASSE 1-3", "type": "municipal", "ZBEZ": "2007" }, "geometry": { "type": "Point", "coordinates": [ 16.376759236966446, 48.237604288731767 ] } },
{ "type": "Feature", "properties": { "name": "NEILREICHGASSE 95-99", "type": "municipal", "ZBEZ": "1010" }, "geometry": { "type": "Point", "coordinates": [ 16.364570968712684, 48.167479406155252 ] } },
{ "type": "Feature", "properties": { "name": "BRUNNER STRASSE 18", "type": "municipal", "ZBEZ": "2307" }, "geometry": { "type": "Point", "coordinates": [ 16.297642861756266, 48.144453224350073 ] } },
{ "type": "Feature", "properties": { "name": "LEOPOLD-ERNST-GASSE 22", "type": "municipal", "ZBEZ": "1701" }, "geometry": { "type": "Point", "coordinates": [ 16.333632753831658, 48.222266471747645 ] } },
{ "type": "Feature", "properties": { "name": "GABLENZGASSE 35-37", "type": "municipal", "ZBEZ": "1501" }, "geometry": { "type": "Point", "coordinates": [ 16.327629619905824, 48.204596313010313 ] } },
{ "type": "Feature", "properties": { "name": "KANTNERGASSE 62-66", "type": "municipal", "ZBEZ": "2110" }, "geometry": { "type": "Point", "coordinates": [ 16.410696720656041, 48.276786528130678 ] } },
{ "type": "Feature", "properties": { "name": "STEIGENTESCHGASSE 11", "type": "municipal", "ZBEZ": "2213" }, "geometry": { "type": "Point", "coordinates": [ 16.44008257899727, 48.245435919048397 ] } },
{ "type": "Feature", "properties": { "name": "CZERNINPLATZ 7", "type": "municipal", "ZBEZ": "0205" }, "geometry": { "type": "Point", "coordinates": [ 16.387072870491295, 48.214058614622317 ] } },
{ "type": "Feature", "properties": { "name": "PETER-JORDAN-STRASSE 81", "type": "municipal", "ZBEZ": "1805" }, "geometry": { "type": "Point", "coordinates": [ 16.328661399612837, 48.236820758317002 ] } },
{ "type": "Feature", "properties": { "name": "HEILIGENSTAEDT.STR. 167-171", "type": "municipal", "ZBEZ": "1902" }, "geometry": { "type": "Point", "coordinates": [ 16.366212700304168, 48.256788185518332 ] } },
{ "type": "Feature", "properties": { "name": "KELLERBERGGASSE 55-57", "type": "municipal", "ZBEZ": "2305" }, "geometry": { "type": "Point", "coordinates": [ 16.306101767990626, 48.125996138570521 ] } },
{ "type": "Feature", "properties": { "name": "BRUNNENGASSE 7", "type": "municipal", "ZBEZ": "1602" }, "geometry": { "type": "Point", "coordinates": [ 16.334521611958063, 48.204816474786419 ] } },
{ "type": "Feature", "properties": { "name": "WEINLECHNERGASSE 1", "type": "municipal", "ZBEZ": "0306" }, "geometry": { "type": "Point", "coordinates": [ 16.398377619079398, 48.19457037634281 ] } },
{ "type": "Feature", "properties": { "name": "BERLAGASSE 1", "type": "municipal", "ZBEZ": "2114" }, "geometry": { "type": "Point", "coordinates": [ 16.387170984958956, 48.286811475835101 ] } },
{ "type": "Feature", "properties": { "name": "WEIMARER STRASSE 8-10", "type": "municipal", "ZBEZ": "1802" }, "geometry": { "type": "Point", "coordinates": [ 16.34070747113315, 48.226142380586104 ] } },
{ "type": "Feature", "properties": { "name": "Franz-Seitler-Hof", "type": "municipal", "ZBEZ": "0309" }, "geometry": { "type": "Point", "coordinates": [ 16.389767983964273, 48.200200461260373 ] } },
{ "type": "Feature", "properties": { "name": "Otto-Gratzl-Hof", "type": "municipal", "ZBEZ": "2007" }, "geometry": { "type": "Point", "coordinates": [ 16.381814923621629, 48.242367448803066 ] } },
{ "type": "Feature", "properties": { "name": "ERLAAER STRASSE 11-15", "type": "municipal", "ZBEZ": "2307" }, "geometry": { "type": "Point", "coordinates": [ 16.298486613401106, 48.146770612840669 ] } },
{ "type": "Feature", "properties": { "name": "BAEUERLEGASSE 31-35", "type": "municipal", "ZBEZ": "2003" }, "geometry": { "type": "Point", "coordinates": [ 16.376445051852485, 48.230866871329717 ] } },
{ "type": "Feature", "properties": { "name": "LORYSTRASSE 54-60", "type": "municipal", "ZBEZ": "1103" }, "geometry": { "type": "Point", "coordinates": [ 16.413923675354621, 48.170639467964627 ] } },
{ "type": "Feature", "properties": { "name": "Leopold-Mayrhofer-Hof", "type": "municipal", "ZBEZ": "1303" }, "geometry": { "type": "Point", "coordinates": [ 16.293354524412194, 48.18919925091236 ] } },
{ "type": "Feature", "properties": { "name": "Hildegard-Burjan-Hof", "type": "municipal", "ZBEZ": "1308" }, "geometry": { "type": "Point", "coordinates": [ 16.284962771379917, 48.169451144539863 ] } },
{ "type": "Feature", "properties": { "name": "Julius-Ofner-Hof", "type": "municipal", "ZBEZ": "0502" }, "geometry": { "type": "Point", "coordinates": [ 16.363163088974801, 48.182808333392622 ] } },
{ "type": "Feature", "properties": { "name": "ARNETHGASSE 95-99", "type": "municipal", "ZBEZ": "1606" }, "geometry": { "type": "Point", "coordinates": [ 16.309690105761071, 48.214528241894371 ] } },
{ "type": "Feature", "properties": { "name": "LEOPOLDAUER STRASSE 107-113", "type": "municipal", "ZBEZ": "2107" }, "geometry": { "type": "Point", "coordinates": [ 16.419944580595434, 48.261638284813195 ] } },
{ "type": "Feature", "properties": { "name": "BACHGASSE 22", "type": "municipal", "ZBEZ": "1601" }, "geometry": { "type": "Point", "coordinates": [ 16.328011793915682, 48.210960369676997 ] } },
{ "type": "Feature", "properties": { "name": "LUZEGASSE 4", "type": "municipal", "ZBEZ": "1110" }, "geometry": { "type": "Point", "coordinates": [ 16.450779549568082, 48.16030095891697 ] } },
{ "type": "Feature", "properties": { "name": "Franz-Graczoll-Hof", "type": "municipal", "ZBEZ": "1506" }, "geometry": { "type": "Point", "coordinates": [ 16.315487668182982, 48.19711153504894 ] } },
{ "type": "Feature", "properties": { "name": "PFARRGASSE 61", "type": "municipal", "ZBEZ": "2318" }, "geometry": { "type": "Point", "coordinates": [ 16.34613281952246, 48.144278530855814 ] } },
{ "type": "Feature", "properties": { "name": "HANREITERGASSE 13", "type": "municipal", "ZBEZ": "2103" }, "geometry": { "type": "Point", "coordinates": [ 16.414732658134181, 48.284843428215453 ] } },
{ "type": "Feature", "properties": { "name": "ENGERTHSTRASSE 189", "type": "municipal", "ZBEZ": "0209" }, "geometry": { "type": "Point", "coordinates": [ 16.405849417361537, 48.223027601972227 ] } },
{ "type": "Feature", "properties": { "name": "BELVEDEREGASSE 36-38", "type": "municipal", "ZBEZ": "0402" }, "geometry": { "type": "Point", "coordinates": [ 16.37324855018888, 48.190628811625373 ] } },
{ "type": "Feature", "properties": { "name": "WIESBERGGASSE 6B", "type": "municipal", "ZBEZ": "1607" }, "geometry": { "type": "Point", "coordinates": [ 16.308040446895891, 48.209904924722117 ] } },
{ "type": "Feature", "properties": { "name": "SCHLOEGLGASSE 71", "type": "municipal", "ZBEZ": "1211" }, "geometry": { "type": "Point", "coordinates": [ 16.303803946429898, 48.16905725949097 ] } },
{ "type": "Feature", "properties": { "name": "AISTGASSE 30", "type": "municipal", "ZBEZ": "2104" }, "geometry": { "type": "Point", "coordinates": [ 16.450095423814865, 48.284730836434363 ] } },
{ "type": "Feature", "properties": { "name": "HASNERSTRASSE 111", "type": "municipal", "ZBEZ": "1603" }, "geometry": { "type": "Point", "coordinates": [ 16.31634025951044, 48.210477073631111 ] } },
{ "type": "Feature", "properties": { "name": "GRATIAN-MARX-STRASSE 5", "type": "municipal", "ZBEZ": "1102" }, "geometry": { "type": "Point", "coordinates": [ 16.407494707413921, 48.183960972819371 ] } },
{ "type": "Feature", "properties": { "name": "SALMGASSE 19", "type": "municipal", "ZBEZ": "0302" }, "geometry": { "type": "Point", "coordinates": [ 16.391059653577503, 48.203863576689344 ] } },
{ "type": "Feature", "properties": { "name": "SPITTELBREITENGASSE 46", "type": "municipal", "ZBEZ": "1207" }, "geometry": { "type": "Point", "coordinates": [ 16.320832796979722, 48.176526827448278 ] } },
{ "type": "Feature", "properties": { "name": "FERNKORNGASSE 94", "type": "municipal", "ZBEZ": "1010" }, "geometry": { "type": "Point", "coordinates": [ 16.361177641883554, 48.166334023654997 ] } },
{ "type": "Feature", "properties": { "name": "WOLFGANGGASSE 50-52", "type": "municipal", "ZBEZ": "1202" }, "geometry": { "type": "Point", "coordinates": [ 16.344070737162152, 48.180174634318767 ] } },
{ "type": "Feature", "properties": { "name": "DIEFENBACHGASSE 30", "type": "municipal", "ZBEZ": "1504" }, "geometry": { "type": "Point", "coordinates": [ 16.332196221688115, 48.18550244529311 ] } },
{ "type": "Feature", "properties": { "name": "MOLLARDGASSE 28", "type": "municipal", "ZBEZ": "0602" }, "geometry": { "type": "Point", "coordinates": [ 16.350818632742435, 48.190729831807175 ] } },
{ "type": "Feature", "properties": { "name": "CERVANTESGASSE 3", "type": "municipal", "ZBEZ": "1402" }, "geometry": { "type": "Point", "coordinates": [ 16.310526153246069, 48.197283983876076 ] } },
{ "type": "Feature", "properties": { "name": "Franz-Silberer-Hof", "type": "municipal", "ZBEZ": "0310" }, "geometry": { "type": "Point", "coordinates": [ 16.402299307324643, 48.197968659494386 ] } },
{ "type": "Feature", "properties": { "name": "AM FREIHOF 47", "type": "municipal", "ZBEZ": "2208" }, "geometry": { "type": "Point", "coordinates": [ 16.450828886919233, 48.247434773873117 ] } },
{ "type": "Feature", "properties": { "name": "Karl-Maisel-Hof", "type": "municipal", "ZBEZ": "1107" }, "geometry": { "type": "Point", "coordinates": [ 16.429310304084233, 48.17036858419295 ] } },
{ "type": "Feature", "properties": { "name": "SEBASTIAN-KELCH-G. 1-3", "type": "municipal", "ZBEZ": "1402" }, "geometry": { "type": "Point", "coordinates": [ 16.307771317619604, 48.197420527459066 ] } },
{ "type": "Feature", "properties": { "name": "POETZLEINSDF.STR. 100", "type": "municipal", "ZBEZ": "1805" }, "geometry": { "type": "Point", "coordinates": [ 16.308134615606917, 48.243413527670747 ] } },
{ "type": "Feature", "properties": { "name": "DOMINIKANERGASSE 5", "type": "municipal", "ZBEZ": "0602" }, "geometry": { "type": "Point", "coordinates": [ 16.346043310790531, 48.190305467702785 ] } },
{ "type": "Feature", "properties": { "name": "WITZELSBERGERGASSE 16-18", "type": "municipal", "ZBEZ": "1501" }, "geometry": { "type": "Point", "coordinates": [ 16.327278679669373, 48.201949354649855 ] } },
{ "type": "Feature", "properties": { "name": "PFENNINGGELDGASSE 1B", "type": "municipal", "ZBEZ": "1603" }, "geometry": { "type": "Point", "coordinates": [ 16.315758313892584, 48.209780658110361 ] } },
{ "type": "Feature", "properties": { "name": "MAGDALENENSTRASSE 9", "type": "municipal", "ZBEZ": "0601" }, "geometry": { "type": "Point", "coordinates": [ 16.354196727959877, 48.195782035808776 ] } },
{ "type": "Feature", "properties": { "name": "MARKTGASSE 15-17", "type": "municipal", "ZBEZ": "0901" }, "geometry": { "type": "Point", "coordinates": [ 16.357825628944742, 48.226503769697459 ] } },
{ "type": "Feature", "properties": { "name": "KETZERGASSE 312-314", "type": "municipal", "ZBEZ": "2311" }, "geometry": { "type": "Point", "coordinates": [ 16.273705468947188, 48.133715297993604 ] } },
{ "type": "Feature", "properties": { "name": "BREITENSEER STRASSE 68-74", "type": "municipal", "ZBEZ": "1401" }, "geometry": { "type": "Point", "coordinates": [ 16.30517398515082, 48.202656024707302 ] } },
{ "type": "Feature", "properties": { "name": "WINTERBURGERGASSE 3", "type": "municipal", "ZBEZ": "1606" }, "geometry": { "type": "Point", "coordinates": [ 16.303361285365245, 48.220180065809402 ] } },
{ "type": "Feature", "properties": { "name": "Wachauer Hof", "type": "municipal", "ZBEZ": "0209" }, "geometry": { "type": "Point", "coordinates": [ 16.406249715228512, 48.22166355240384 ] } },
{ "type": "Feature", "properties": { "name": "ERDBERGSTRASSE 36", "type": "municipal", "ZBEZ": "0302" }, "geometry": { "type": "Point", "coordinates": [ 16.395668572989333, 48.201905628066832 ] } },
{ "type": "Feature", "properties": { "name": "BRANDMAYERGASSE 4", "type": "municipal", "ZBEZ": "0503" }, "geometry": { "type": "Point", "coordinates": [ 16.35237362497044, 48.185350019972013 ] } },
{ "type": "Feature", "properties": { "name": "Karl-Waldbrunner-Hof", "type": "municipal", "ZBEZ": "0310" }, "geometry": { "type": "Point", "coordinates": [ 16.406459241042064, 48.198672822905934 ] } },
{ "type": "Feature", "properties": { "name": "Johann-Radfux-Hof", "type": "municipal", "ZBEZ": "2308" }, "geometry": { "type": "Point", "coordinates": [ 16.297927702748019, 48.150613580973086 ] } },
{ "type": "Feature", "properties": { "name": "ROSENSTEINGASSE 61", "type": "municipal", "ZBEZ": "1703" }, "geometry": { "type": "Point", "coordinates": [ 16.326155166687322, 48.219010147827049 ] } },
{ "type": "Feature", "properties": { "name": "OTTAKRINGER STRASSE 194", "type": "municipal", "ZBEZ": "1604" }, "geometry": { "type": "Point", "coordinates": [ 16.311366020549769, 48.214146551412149 ] } },
{ "type": "Feature", "properties": { "name": "OEDENBURGER STRASSE 73-85", "type": "municipal", "ZBEZ": "2112" }, "geometry": { "type": "Point", "coordinates": [ 16.399989421145655, 48.281749302681341 ] } },
{ "type": "Feature", "properties": { "name": "UCHATIUSGASSE 10", "type": "municipal", "ZBEZ": "0302" }, "geometry": { "type": "Point", "coordinates": [ 16.390673894123566, 48.204904809446425 ] } },
{ "type": "Feature", "properties": { "name": "GRUENDORFGASSE 4", "type": "municipal", "ZBEZ": "1402" }, "geometry": { "type": "Point", "coordinates": [ 16.30810117878767, 48.198022687844741 ] } },
{ "type": "Feature", "properties": { "name": "LEOPOLD-RISTER-GASSE 5", "type": "municipal", "ZBEZ": "0502" }, "geometry": { "type": "Point", "coordinates": [ 16.356205300177429, 48.181096715255919 ] } },
{ "type": "Feature", "properties": { "name": "Forstnerhof", "type": "municipal", "ZBEZ": "1501" }, "geometry": { "type": "Point", "coordinates": [ 16.327534912478843, 48.203895029674321 ] } },
{ "type": "Feature", "properties": { "name": "THALHAIMERGASSE 1-7", "type": "municipal", "ZBEZ": "1603" }, "geometry": { "type": "Point", "coordinates": [ 16.319013635652407, 48.206920496131879 ] } },
{ "type": "Feature", "properties": { "name": "Fröhlichhof", "type": "municipal", "ZBEZ": "1202" }, "geometry": { "type": "Point", "coordinates": [ 16.339615968850346, 48.1841463593829 ] } },
{ "type": "Feature", "properties": { "name": "F.-HOCHEDLINGER-G. 30-32", "type": "municipal", "ZBEZ": "0203" }, "geometry": { "type": "Point", "coordinates": [ 16.375022685685437, 48.217302969516467 ] } },
{ "type": "Feature", "properties": { "name": "Ernst-Kirchweger-Hof", "type": "municipal", "ZBEZ": "1022" }, "geometry": { "type": "Point", "coordinates": [ 16.379261349754067, 48.18029538157846 ] } },
{ "type": "Feature", "properties": { "name": "ROSEGGERGASSE 43", "type": "municipal", "ZBEZ": "1607" }, "geometry": { "type": "Point", "coordinates": [ 16.308301749837032, 48.212035316126475 ] } },
{ "type": "Feature", "properties": { "name": "DORNBACHER STRASSE 42-44", "type": "municipal", "ZBEZ": "1705" }, "geometry": { "type": "Point", "coordinates": [ 16.301409671012678, 48.228388768133335 ] } },
{ "type": "Feature", "properties": { "name": "PUCHSBAUMPLATZ 13", "type": "municipal", "ZBEZ": "1002" }, "geometry": { "type": "Point", "coordinates": [ 16.386946051676066, 48.172393932850696 ] } },
{ "type": "Feature", "properties": { "name": "Helene-Potetz-Hof", "type": "municipal", "ZBEZ": "1211" }, "geometry": { "type": "Point", "coordinates": [ 16.300796524467362, 48.166786029761226 ] } },
{ "type": "Feature", "properties": { "name": "SPRINGSIEDELGASSE 32", "type": "municipal", "ZBEZ": "1901" }, "geometry": { "type": "Point", "coordinates": [ 16.355239914013499, 48.256910501791388 ] } },
{ "type": "Feature", "properties": { "name": "August-Bergmann-Hof", "type": "municipal", "ZBEZ": "0403" }, "geometry": { "type": "Point", "coordinates": [ 16.368631821210865, 48.19545098069824 ] } },
{ "type": "Feature", "properties": { "name": "WEISSGERBERLAENDE 30-36", "type": "municipal", "ZBEZ": "0301" }, "geometry": { "type": "Point", "coordinates": [ 16.394588473228115, 48.209562304155504 ] } },
{ "type": "Feature", "properties": { "name": "LANDSTR.HAUPTSTR. 127", "type": "municipal", "ZBEZ": "0306" }, "geometry": { "type": "Point", "coordinates": [ 16.396899625307139, 48.195905544883892 ] } },
{ "type": "Feature", "properties": { "name": "STUMPERGASSE 41", "type": "municipal", "ZBEZ": "0603" }, "geometry": { "type": "Point", "coordinates": [ 16.343860285813335, 48.194203553575043 ] } },
{ "type": "Feature", "properties": { "name": "MUHRHOFERWEG 5", "type": "municipal", "ZBEZ": "1110" }, "geometry": { "type": "Point", "coordinates": [ 16.468384406254778, 48.154424686248973 ] } },
{ "type": "Feature", "properties": { "name": "SCHEGARGASSE 17", "type": "municipal", "ZBEZ": "1904" }, "geometry": { "type": "Point", "coordinates": [ 16.35221677426966, 48.235181782246869 ] } },
{ "type": "Feature", "properties": { "name": "GRIMMGASSE 8", "type": "municipal", "ZBEZ": "1505" }, "geometry": { "type": "Point", "coordinates": [ 16.328126766733487, 48.187625192428648 ] } },
{ "type": "Feature", "properties": { "name": "TROSTSTRASSE 20-30", "type": "municipal", "ZBEZ": "1003" }, "geometry": { "type": "Point", "coordinates": [ 16.375713537852437, 48.168913211696818 ] } },
{ "type": "Feature", "properties": { "name": "Therese-Schlesinger-Hof", "type": "municipal", "ZBEZ": "0801" }, "geometry": { "type": "Point", "coordinates": [ 16.353665169557466, 48.213356829773922 ] } },
{ "type": "Feature", "properties": { "name": "JAGDGASSE 2F", "type": "municipal", "ZBEZ": "1004" }, "geometry": { "type": "Point", "coordinates": [ 16.372728656168558, 48.18039924420259 ] } },
{ "type": "Feature", "properties": { "name": "GOLDSCHLAGSTRASSE 144-146", "type": "municipal", "ZBEZ": "1402" }, "geometry": { "type": "Point", "coordinates": [ 16.309197744861045, 48.196236491574119 ] } },
{ "type": "Feature", "properties": { "name": "MUHRHOFERWEG 11", "type": "municipal", "ZBEZ": "1110" }, "geometry": { "type": "Point", "coordinates": [ 16.469568914679595, 48.156098118340459 ] } },
{ "type": "Feature", "properties": { "name": "SCHMALZHOFGASSE 23", "type": "municipal", "ZBEZ": "0603" }, "geometry": { "type": "Point", "coordinates": [ 16.344288137538271, 48.1943789544246 ] } },
{ "type": "Feature", "properties": { "name": "JUSTGASSE 9", "type": "municipal", "ZBEZ": "2109" }, "geometry": { "type": "Point", "coordinates": [ 16.415182327043716, 48.276813824045178 ] } },
{ "type": "Feature", "properties": { "name": "Edwin-Schuster-Hof", "type": "municipal", "ZBEZ": "1901" }, "geometry": { "type": "Point", "coordinates": [ 16.365090830334346, 48.259265855734803 ] } },
{ "type": "Feature", "properties": { "name": "IM WERD 4", "type": "municipal", "ZBEZ": "0203" }, "geometry": { "type": "Point", "coordinates": [ 16.376720399102375, 48.218211942885276 ] } },
{ "type": "Feature", "properties": { "name": "EISTEICHSTRASSE 17", "type": "municipal", "ZBEZ": "1102" }, "geometry": { "type": "Point", "coordinates": [ 16.416413130998677, 48.179704859190323 ] } },
{ "type": "Feature", "properties": { "name": "FRIESENPLATZ 1-2", "type": "municipal", "ZBEZ": "1010" }, "geometry": { "type": "Point", "coordinates": [ 16.365326780369625, 48.171390791611174 ] } },
{ "type": "Feature", "properties": { "name": "SIEVERINGER STRASSE 25", "type": "municipal", "ZBEZ": "1908" }, "geometry": { "type": "Point", "coordinates": [ 16.338381548487565, 48.245747720894478 ] } },
{ "type": "Feature", "properties": { "name": "LAAER-BERG-STRASSE 168", "type": "municipal", "ZBEZ": "1016" }, "geometry": { "type": "Point", "coordinates": [ 16.395600934995677, 48.155487266476072 ] } },
{ "type": "Feature", "properties": { "name": "HANSELMAYERGASSE 9-15", "type": "municipal", "ZBEZ": "1307" }, "geometry": { "type": "Point", "coordinates": [ 16.29443350431319, 48.178520201361174 ] } },
{ "type": "Feature", "properties": { "name": "LACKNERGASSE 96", "type": "municipal", "ZBEZ": "1803" }, "geometry": { "type": "Point", "coordinates": [ 16.33348365467857, 48.226775977723747 ] } },
{ "type": "Feature", "properties": { "name": "GALLGASSE 71", "type": "municipal", "ZBEZ": "1308" }, "geometry": { "type": "Point", "coordinates": [ 16.290344186147216, 48.163270743637433 ] } },
{ "type": "Feature", "properties": { "name": "CLEMENTINENGASSE 3", "type": "municipal", "ZBEZ": "1503" }, "geometry": { "type": "Point", "coordinates": [ 16.336337610884645, 48.191068421911453 ] } },
{ "type": "Feature", "properties": { "name": "ARLTGASSE 34-36", "type": "municipal", "ZBEZ": "1610" }, "geometry": { "type": "Point", "coordinates": [ 16.319457792797092, 48.209287092812858 ] } },
{ "type": "Feature", "properties": { "name": "LIECHTENSTEINSTRASSE 137", "type": "municipal", "ZBEZ": "0901" }, "geometry": { "type": "Point", "coordinates": [ 16.355802356398954, 48.230388698097094 ] } },
{ "type": "Feature", "properties": { "name": "PUELSLGASSE 3", "type": "municipal", "ZBEZ": "2311" }, "geometry": { "type": "Point", "coordinates": [ 16.278562383849629, 48.134788148766546 ] } },
{ "type": "Feature", "properties": { "name": "POLGARSTRASSE 25", "type": "municipal", "ZBEZ": "2216" }, "geometry": { "type": "Point", "coordinates": [ 16.453738850934521, 48.239150457070465 ] } },
{ "type": "Feature", "properties": { "name": "DR.-NATTERER-GASSE 2-4", "type": "municipal", "ZBEZ": "0209" }, "geometry": { "type": "Point", "coordinates": [ 16.421453669610823, 48.212012768660401 ] } },
{ "type": "Feature", "properties": { "name": "GMUENDSTRASSE 1", "type": "municipal", "ZBEZ": "2114" }, "geometry": { "type": "Point", "coordinates": [ 16.385427008373696, 48.291628924963604 ] } },
{ "type": "Feature", "properties": { "name": "HADIKGASSE 268-272", "type": "municipal", "ZBEZ": "1406" }, "geometry": { "type": "Point", "coordinates": [ 16.272374427674521, 48.193246008901646 ] } },
{ "type": "Feature", "properties": { "name": "HERNALSER HAUPTSTR. 100", "type": "municipal", "ZBEZ": "1702" }, "geometry": { "type": "Point", "coordinates": [ 16.327095674192542, 48.219397056357984 ] } },
{ "type": "Feature", "properties": { "name": "Hanuschhof", "type": "municipal", "ZBEZ": "0310" }, "geometry": { "type": "Point", "coordinates": [ 16.408228305895133, 48.197438093923687 ] } },
{ "type": "Feature", "properties": { "name": "KETZERGASSE 42", "type": "municipal", "ZBEZ": "2305" }, "geometry": { "type": "Point", "coordinates": [ 16.313476694585777, 48.127128851192708 ] } },
{ "type": "Feature", "properties": { "name": "HERBORTGASSE 42", "type": "municipal", "ZBEZ": "1103" }, "geometry": { "type": "Point", "coordinates": [ 16.413394024901507, 48.168512741646659 ] } },
{ "type": "Feature", "properties": { "name": "ROSENTALGASSE 15", "type": "municipal", "ZBEZ": "1410" }, "geometry": { "type": "Point", "coordinates": [ 16.261858711496501, 48.205701391326713 ] } },
{ "type": "Feature", "properties": { "name": "Otto-Limanovsky-Hof", "type": "municipal", "ZBEZ": "0704" }, "geometry": { "type": "Point", "coordinates": [ 16.342737829603042, 48.201645032071525 ] } },
{ "type": "Feature", "properties": { "name": "LAXENBURGER STRASSE 140", "type": "municipal", "ZBEZ": "1013" }, "geometry": { "type": "Point", "coordinates": [ 16.364290404548722, 48.155050971702856 ] } },
{ "type": "Feature", "properties": { "name": "Max-Opravil-Hof", "type": "municipal", "ZBEZ": "1203" }, "geometry": { "type": "Point", "coordinates": [ 16.338660323523509, 48.171751679645503 ] } },
{ "type": "Feature", "properties": { "name": "SANDLEITENGASSE 9-13", "type": "municipal", "ZBEZ": "1606" }, "geometry": { "type": "Point", "coordinates": [ 16.306333280422507, 48.216194032803358 ] } },
{ "type": "Feature", "properties": { "name": "NEUDEGGERGASSE 12", "type": "municipal", "ZBEZ": "0802" }, "geometry": { "type": "Point", "coordinates": [ 16.351931552654904, 48.207324271318583 ] } },
{ "type": "Feature", "properties": { "name": "CAMILLO-SITTE-GASSE 11-13", "type": "municipal", "ZBEZ": "1501" }, "geometry": { "type": "Point", "coordinates": [ 16.326726517135928, 48.203707782712833 ] } },
{ "type": "Feature", "properties": { "name": "KOEHLERGASSE 1-3", "type": "municipal", "ZBEZ": "1802" }, "geometry": { "type": "Point", "coordinates": [ 16.333012563084086, 48.228822325723968 ] } },
{ "type": "Feature", "properties": { "name": "GRATIAN-MARX-STRASSE 4", "type": "municipal", "ZBEZ": "1102" }, "geometry": { "type": "Point", "coordinates": [ 16.407587852722507, 48.183646558232716 ] } },
{ "type": "Feature", "properties": { "name": "Hans-Binder-Hof", "type": "municipal", "ZBEZ": "0703" }, "geometry": { "type": "Point", "coordinates": [ 16.344431890344914, 48.199035308398692 ] } },
{ "type": "Feature", "properties": { "name": "WOLLZEILE 27", "type": "municipal", "ZBEZ": "0101" }, "geometry": { "type": "Point", "coordinates": [ 16.377393088179712, 48.20822394465057 ] } },
{ "type": "Feature", "properties": { "name": "LAAER-BERG-STRASSE 166", "type": "municipal", "ZBEZ": "1016" }, "geometry": { "type": "Point", "coordinates": [ 16.395219590549278, 48.156019326397214 ] } },
{ "type": "Feature", "properties": { "name": "DEUTSCHORDENSTRASSE 27-35", "type": "municipal", "ZBEZ": "1407" }, "geometry": { "type": "Point", "coordinates": [ 16.268154763932436, 48.199066335716566 ] } },
{ "type": "Feature", "properties": { "name": "BOERNERGASSE 3", "type": "municipal", "ZBEZ": "1910" }, "geometry": { "type": "Point", "coordinates": [ 16.328154598791482, 48.244551849151954 ] } },
{ "type": "Feature", "properties": { "name": "WEHLISTRASSE 307", "type": "municipal", "ZBEZ": "0208" }, "geometry": { "type": "Point", "coordinates": [ 16.438150456117352, 48.200884228171851 ] } },
{ "type": "Feature", "properties": { "name": "KAISER-EBERSDF.-STR. 290", "type": "municipal", "ZBEZ": "1111" }, "geometry": { "type": "Point", "coordinates": [ 16.464484073606219, 48.159810872561927 ] } },
{ "type": "Feature", "properties": { "name": "HANS-STEGER-GASSE 13", "type": "municipal", "ZBEZ": "2219" }, "geometry": { "type": "Point", "coordinates": [ 16.455495530829683, 48.225638960400211 ] } },
{ "type": "Feature", "properties": { "name": "RAINERGASSE 23", "type": "municipal", "ZBEZ": "0404" }, "geometry": { "type": "Point", "coordinates": [ 16.366631800432682, 48.187812593176339 ] } },
{ "type": "Feature", "properties": { "name": "OSWALD-REDLICH-STR. 36", "type": "municipal", "ZBEZ": "2105" }, "geometry": { "type": "Point", "coordinates": [ 16.44617103767774, 48.273603064184769 ] } },
{ "type": "Feature", "properties": { "name": "FRANZENSGASSE 7-9", "type": "municipal", "ZBEZ": "0501" }, "geometry": { "type": "Point", "coordinates": [ 16.360039898434099, 48.194078960589316 ] } },
{ "type": "Feature", "properties": { "name": "LINIENGASSE 13", "type": "municipal", "ZBEZ": "0603" }, "geometry": { "type": "Point", "coordinates": [ 16.346177934911388, 48.192913382619032 ] } },
{ "type": "Feature", "properties": { "name": "JAHNGASSE 34", "type": "municipal", "ZBEZ": "0502" }, "geometry": { "type": "Point", "coordinates": [ 16.357912055741963, 48.183721762233162 ] } },
{ "type": "Feature", "properties": { "name": "GOELLNERGASSE 25", "type": "municipal", "ZBEZ": "0310" }, "geometry": { "type": "Point", "coordinates": [ 16.401521771155696, 48.199782859802141 ] } },
{ "type": "Feature", "properties": { "name": "KUEHNPLATZ 1-4", "type": "municipal", "ZBEZ": "0401" }, "geometry": { "type": "Point", "coordinates": [ 16.365350541340707, 48.197977487120667 ] } },
{ "type": "Feature", "properties": { "name": "NEUSTIFTGASSE 143", "type": "municipal", "ZBEZ": "0705" }, "geometry": { "type": "Point", "coordinates": [ 16.338975908222366, 48.20581771576957 ] } },
{ "type": "Feature", "properties": { "name": "BRANDMAYERGASSE 27", "type": "municipal", "ZBEZ": "0503" }, "geometry": { "type": "Point", "coordinates": [ 16.349649324302085, 48.184007754200081 ] } },
{ "type": "Feature", "properties": { "name": "COSTAGASSE 15", "type": "municipal", "ZBEZ": "1501" }, "geometry": { "type": "Point", "coordinates": [ 16.327381070094734, 48.201068502674651 ] } },
{ "type": "Feature", "properties": { "name": "TRIESTER STRASSE 205", "type": "municipal", "ZBEZ": "2302" }, "geometry": { "type": "Point", "coordinates": [ 16.335768193532878, 48.148773977823041 ] } },
{ "type": "Feature", "properties": { "name": "WAEHRINGER STRASSE 188-190", "type": "municipal", "ZBEZ": "1802" }, "geometry": { "type": "Point", "coordinates": [ 16.331506384473649, 48.229433139553997 ] } },
{ "type": "Feature", "properties": { "name": "WANKLAECKERGASSE 2", "type": "municipal", "ZBEZ": "2110" }, "geometry": { "type": "Point", "coordinates": [ 16.41712380323273, 48.274783235828465 ] } },
{ "type": "Feature", "properties": { "name": "WIELEMANSGASSE 18-22", "type": "municipal", "ZBEZ": "1804" }, "geometry": { "type": "Point", "coordinates": [ 16.324130430870909, 48.228456132884034 ] } },
{ "type": "Feature", "properties": { "name": "MUNDYGASSE 12", "type": "municipal", "ZBEZ": "1002" }, "geometry": { "type": "Point", "coordinates": [ 16.38314868827149, 48.176093417220436 ] } },
{ "type": "Feature", "properties": { "name": "POGRELZSTRASSE 25", "type": "municipal", "ZBEZ": "2214" }, "geometry": { "type": "Point", "coordinates": [ 16.45178863240606, 48.240314347802908 ] } },
{ "type": "Feature", "properties": { "name": "JUREKGASSE 29", "type": "municipal", "ZBEZ": "1505" }, "geometry": { "type": "Point", "coordinates": [ 16.324346781661134, 48.191437103844642 ] } },
{ "type": "Feature", "properties": { "name": "SCHNIRCHGASSE 1-5", "type": "municipal", "ZBEZ": "0307" }, "geometry": { "type": "Point", "coordinates": [ 16.409845046554395, 48.195677858892047 ] } },
{ "type": "Feature", "properties": { "name": "OELWEINGASSE 3-5", "type": "municipal", "ZBEZ": "1505" }, "geometry": { "type": "Point", "coordinates": [ 16.329676400953336, 48.18894584851153 ] } },
{ "type": "Feature", "properties": { "name": "MAURER HAUPTPLATZ 2", "type": "municipal", "ZBEZ": "2314" }, "geometry": { "type": "Point", "coordinates": [ 16.268784547120376, 48.151173202775688 ] } },
{ "type": "Feature", "properties": { "name": "KAROLINENGASSE 15", "type": "municipal", "ZBEZ": "0402" }, "geometry": { "type": "Point", "coordinates": [ 16.377019950266966, 48.190536177810642 ] } },
{ "type": "Feature", "properties": { "name": "ZIEGELOFENGASSE 24-26", "type": "municipal", "ZBEZ": "0501" }, "geometry": { "type": "Point", "coordinates": [ 16.36083504212549, 48.191606428373746 ] } },
{ "type": "Feature", "properties": { "name": "Hedorferhof", "type": "municipal", "ZBEZ": "1103" }, "geometry": { "type": "Point", "coordinates": [ 16.414322130955977, 48.175739401943154 ] } },
{ "type": "Feature", "properties": { "name": "RUEPPGASSE 12-14", "type": "municipal", "ZBEZ": "0202" }, "geometry": { "type": "Point", "coordinates": [ 16.38657306029755, 48.22114477655213 ] } },
{ "type": "Feature", "properties": { "name": "STURZGASSE 14", "type": "municipal", "ZBEZ": "1506" }, "geometry": { "type": "Point", "coordinates": [ 16.316876983100254, 48.195317076776256 ] } },
{ "type": "Feature", "properties": { "name": "Karl-Kysela-Hof", "type": "municipal", "ZBEZ": "1608" }, "geometry": { "type": "Point", "coordinates": [ 16.302611805019765, 48.213523554220274 ] } },
{ "type": "Feature", "properties": { "name": "WUERTZLERSTRASSE 23", "type": "municipal", "ZBEZ": "0307" }, "geometry": { "type": "Point", "coordinates": [ 16.407094388371096, 48.193218505942653 ] } },
{ "type": "Feature", "properties": { "name": "Wilhelm-Weber Hof", "type": "municipal", "ZBEZ": "1102" }, "geometry": { "type": "Point", "coordinates": [ 16.409936397737692, 48.182007983751703 ] } },
{ "type": "Feature", "properties": { "name": "PENZINGER STRASSE 138-140", "type": "municipal", "ZBEZ": "1403" }, "geometry": { "type": "Point", "coordinates": [ 16.294964024201668, 48.191643081293194 ] } },
{ "type": "Feature", "properties": { "name": "DEUTSCHORDENSTRASSE 7-25", "type": "municipal", "ZBEZ": "1407" }, "geometry": { "type": "Point", "coordinates": [ 16.267452341034254, 48.197633516933394 ] } },
{ "type": "Feature", "properties": { "name": "KOPPSTRASSE 11", "type": "municipal", "ZBEZ": "1602" }, "geometry": { "type": "Point", "coordinates": [ 16.333244731590476, 48.206512125844426 ] } },
{ "type": "Feature", "properties": { "name": "TIETZESTRASSE 2", "type": "municipal", "ZBEZ": "2215" }, "geometry": { "type": "Point", "coordinates": [ 16.446789875888733, 48.229940012465754 ] } },
{ "type": "Feature", "properties": { "name": "SCHWENDERGASSE 15", "type": "municipal", "ZBEZ": "1505" }, "geometry": { "type": "Point", "coordinates": [ 16.328932683304384, 48.190873372514524 ] } },
{ "type": "Feature", "properties": { "name": "ERLAAER STRASSE 154-158", "type": "municipal", "ZBEZ": "2302" }, "geometry": { "type": "Point", "coordinates": [ 16.323228154327115, 48.138104032643781 ] } },
{ "type": "Feature", "properties": { "name": "VERSORGUNGSHEIMSTR. 19", "type": "municipal", "ZBEZ": "1308" }, "geometry": { "type": "Point", "coordinates": [ 16.28242599258278, 48.173466505473137 ] } },
{ "type": "Feature", "properties": { "name": "CUMBERLANDSTRASSE 83", "type": "municipal", "ZBEZ": "1403" }, "geometry": { "type": "Point", "coordinates": [ 16.295986246272189, 48.191648443889022 ] } },
{ "type": "Feature", "properties": { "name": "Franz-Adelpoller-Hof", "type": "municipal", "ZBEZ": "0306" }, "geometry": { "type": "Point", "coordinates": [ 16.405395138878827, 48.195316448099391 ] } },
{ "type": "Feature", "properties": { "name": "FAVORITENSTRASSE 45", "type": "municipal", "ZBEZ": "0402" }, "geometry": { "type": "Point", "coordinates": [ 16.373597847808192, 48.187568932742515 ] } },
{ "type": "Feature", "properties": { "name": "PAPPENHEIMGASSE 29", "type": "municipal", "ZBEZ": "2006" }, "geometry": { "type": "Point", "coordinates": [ 16.367855127665049, 48.234290873039036 ] } },
{ "type": "Feature", "properties": { "name": "KAIS.-FR.-JOSEF-STR. 23-25", "type": "municipal", "ZBEZ": "2312" }, "geometry": { "type": "Point", "coordinates": [ 16.266881627047752, 48.134410227099274 ] } },
{ "type": "Feature", "properties": { "name": "GROSSE SCHIFFGASSE 32", "type": "municipal", "ZBEZ": "0203" }, "geometry": { "type": "Point", "coordinates": [ 16.37618651951383, 48.21892666389472 ] } },
{ "type": "Feature", "properties": { "name": "Rudolf-Krammer-Hof", "type": "municipal", "ZBEZ": "0602" }, "geometry": { "type": "Point", "coordinates": [ 16.351446215381156, 48.190402141396333 ] } },
{ "type": "Feature", "properties": { "name": "WIEDNER HAUPTSTRASSE 60B", "type": "municipal", "ZBEZ": "0403" }, "geometry": { "type": "Point", "coordinates": [ 16.366140993307649, 48.190920388089609 ] } },
{ "type": "Feature", "properties": { "name": "Heinrich-Hajek-Hof", "type": "municipal", "ZBEZ": "1507" }, "geometry": { "type": "Point", "coordinates": [ 16.321959819796852, 48.200461234813339 ] } },
{ "type": "Feature", "properties": { "name": "August-Fürst-Hof", "type": "municipal", "ZBEZ": "1205" }, "geometry": { "type": "Point", "coordinates": [ 16.329385997902207, 48.181938417788544 ] } },
{ "type": "Feature", "properties": { "name": "VORGARTENSTRASSE 194", "type": "municipal", "ZBEZ": "0207" }, "geometry": { "type": "Point", "coordinates": [ 16.408307337234653, 48.218794338371346 ] } },
{ "type": "Feature", "properties": { "name": "BAUMGASSE 63-65", "type": "municipal", "ZBEZ": "0306" }, "geometry": { "type": "Point", "coordinates": [ 16.403611582836149, 48.193889257073906 ] } },
{ "type": "Feature", "properties": { "name": "LINZER STRASSE 60-62", "type": "municipal", "ZBEZ": "1404" }, "geometry": { "type": "Point", "coordinates": [ 16.308236172024333, 48.193964234184492 ] } },
{ "type": "Feature", "properties": { "name": "FRANZENSGASSE 17", "type": "municipal", "ZBEZ": "0501" }, "geometry": { "type": "Point", "coordinates": [ 16.359154914196328, 48.194997965321086 ] } },
{ "type": "Feature", "properties": { "name": "DARINGERGASSE 10", "type": "municipal", "ZBEZ": "1905" }, "geometry": { "type": "Point", "coordinates": [ 16.336947127998645, 48.247536613644058 ] } },
{ "type": "Feature", "properties": { "name": "RATSCHKYGASSE 41-43", "type": "municipal", "ZBEZ": "1207" }, "geometry": { "type": "Point", "coordinates": [ 16.322773759863505, 48.1771443432159 ] } },
{ "type": "Feature", "properties": { "name": "SCHELLEINGASSE 18-20", "type": "municipal", "ZBEZ": "0402" }, "geometry": { "type": "Point", "coordinates": [ 16.374253802451914, 48.187405431538835 ] } },
{ "type": "Feature", "properties": { "name": "VOLLBADGASSE 3-5", "type": "municipal", "ZBEZ": "1705" }, "geometry": { "type": "Point", "coordinates": [ 16.300673486698635, 48.229142076092948 ] } },
{ "type": "Feature", "properties": { "name": "Pölzerhof", "type": "municipal", "ZBEZ": "1006" }, "geometry": { "type": "Point", "coordinates": [ 16.366704014638106, 48.179712366418954 ] } },
{ "type": "Feature", "properties": { "name": "BRUNNWEG 4", "type": "municipal", "ZBEZ": "1010" }, "geometry": { "type": "Point", "coordinates": [ 16.362936701223298, 48.168647042137295 ] } },
{ "type": "Feature", "properties": { "name": "SCHLUCKERGASSE 1-13", "type": "municipal", "ZBEZ": "1308" }, "geometry": { "type": "Point", "coordinates": [ 16.289470638215917, 48.158058901053259 ] } },
{ "type": "Feature", "properties": { "name": "KARMELITERHOFGASSE 7-9", "type": "municipal", "ZBEZ": "1503" }, "geometry": { "type": "Point", "coordinates": [ 16.331613893062965, 48.192729228611618 ] } },
{ "type": "Feature", "properties": { "name": "MALFATTIGASSE 13", "type": "municipal", "ZBEZ": "1202" }, "geometry": { "type": "Point", "coordinates": [ 16.340327997792105, 48.182571928867176 ] } },
{ "type": "Feature", "properties": { "name": "WEIDMANNGASSE 14", "type": "municipal", "ZBEZ": "1701" }, "geometry": { "type": "Point", "coordinates": [ 16.332969053664012, 48.221246922539905 ] } },
{ "type": "Feature", "properties": { "name": "HERBSTSTRASSE 71-75", "type": "municipal", "ZBEZ": "1603" }, "geometry": { "type": "Point", "coordinates": [ 16.321040343781764, 48.20662065948558 ] } },
{ "type": "Feature", "properties": { "name": "JUREKGASSE 5", "type": "municipal", "ZBEZ": "1503" }, "geometry": { "type": "Point", "coordinates": [ 16.328930790805739, 48.192031680607251 ] } },
{ "type": "Feature", "properties": { "name": "Rudolf-von-Alt-Hof", "type": "municipal", "ZBEZ": "0801" }, "geometry": { "type": "Point", "coordinates": [ 16.346729157513995, 48.213721437098066 ] } },
{ "type": "Feature", "properties": { "name": "HOFHERRGASSE 5-13", "type": "municipal", "ZBEZ": "1002" }, "geometry": { "type": "Point", "coordinates": [ 16.391713164474197, 48.174573965836771 ] } },
{ "type": "Feature", "properties": { "name": "KOLBEGASSE 30-32", "type": "municipal", "ZBEZ": "2318" }, "geometry": { "type": "Point", "coordinates": [ 16.349011321042962, 48.147804943610637 ] } },
{ "type": "Feature", "properties": { "name": "AUSSTELLUNGSSTRASSE 67", "type": "municipal", "ZBEZ": "0207" }, "geometry": { "type": "Point", "coordinates": [ 16.408398696192993, 48.218215670322977 ] } },
{ "type": "Feature", "properties": { "name": "SCHOEPFLEUTHNERGASSE 8-16", "type": "municipal", "ZBEZ": "2122" }, "geometry": { "type": "Point", "coordinates": [ 16.397402894345898, 48.254246037558445 ] } },
{ "type": "Feature", "properties": { "name": "HEINDLGASSE 7-9", "type": "municipal", "ZBEZ": "1603" }, "geometry": { "type": "Point", "coordinates": [ 16.316469615640521, 48.211327486203615 ] } },
{ "type": "Feature", "properties": { "name": "WEIMARER STRASSE 110", "type": "municipal", "ZBEZ": "1909" }, "geometry": { "type": "Point", "coordinates": [ 16.345974208224657, 48.238126779149169 ] } },
{ "type": "Feature", "properties": { "name": "BRAUNHIRSCHENGASSE 8-10", "type": "municipal", "ZBEZ": "1505" }, "geometry": { "type": "Point", "coordinates": [ 16.326995059005032, 48.187400996682122 ] } },
{ "type": "Feature", "properties": { "name": "Georg-Emmerling-Hof", "type": "municipal", "ZBEZ": "0204" }, "geometry": { "type": "Point", "coordinates": [ 16.378136737204002, 48.213128446895311 ] } },
{ "type": "Feature", "properties": { "name": "DOEBLINGER GUERTEL 10", "type": "municipal", "ZBEZ": "1904" }, "geometry": { "type": "Point", "coordinates": [ 16.35500644736231, 48.232767880758168 ] } },
{ "type": "Feature", "properties": { "name": "Nora-Hiltl-Hof", "type": "municipal", "ZBEZ": "1308" }, "geometry": { "type": "Point", "coordinates": [ 16.283134622773538, 48.170393356160496 ] } },
{ "type": "Feature", "properties": { "name": "HORNECKGASSE 16", "type": "municipal", "ZBEZ": "1703" }, "geometry": { "type": "Point", "coordinates": [ 16.323570204607744, 48.216617073337595 ] } },
{ "type": "Feature", "properties": { "name": "EINSIEDLERPLATZ 7", "type": "municipal", "ZBEZ": "0503" }, "geometry": { "type": "Point", "coordinates": [ 16.351160527685671, 48.186000840113373 ] } },
{ "type": "Feature", "properties": { "name": "DORNBACHER STRASSE 119", "type": "municipal", "ZBEZ": "1705" }, "geometry": { "type": "Point", "coordinates": [ 16.291061509509444, 48.233028099087946 ] } },
{ "type": "Feature", "properties": { "name": "GREINERGASSE 3", "type": "municipal", "ZBEZ": "1901" }, "geometry": { "type": "Point", "coordinates": [ 16.364374104413645, 48.255440532499165 ] } },
{ "type": "Feature", "properties": { "name": "AGAVENWEG 26", "type": "municipal", "ZBEZ": "2202" }, "geometry": { "type": "Point", "coordinates": [ 16.500397087383579, 48.253487503114684 ] } },
{ "type": "Feature", "properties": { "name": "JEDLERSDORFER STR. 180", "type": "municipal", "ZBEZ": "2111" }, "geometry": { "type": "Point", "coordinates": [ 16.410609466931977, 48.286763814698254 ] } },
{ "type": "Feature", "properties": { "name": "ARBESBACHGASSE 20", "type": "municipal", "ZBEZ": "1908" }, "geometry": { "type": "Point", "coordinates": [ 16.339929779774494, 48.244518046622829 ] } },