{"type":"FeatureCollection","totalFeatures":31,"features":[{"type":"Feature","id":"SOZIALMARKTOGD.3038203","geometry":{"type":"Point","coordinates":[16.35448246785819,48.17132003310028]},"geometry_name":"SHAPE","properties":{"BEZEICHNUNG":"Sozialmarkt Favoriten Sozialmarkt Wien, gemeinnütziger Verein","ADRESSE":"10., Braunspergengasse 30","BEZIRK":10,"LANGTEXT":"Sozialmärkte","SE_SDO_ROWID":3038203,"SE_ANNO_CAD_DATA":null,"WEBLINK1":"https://www.wien.gv.at/sozialinfo/content/de/10/InstitutionDetail.do?it_1=2100243"}},{"type":"Feature","id":"SOZIALMARKTOGD.3038722","geometry":{"type":"Point","coordinates":[16.41153734606912,48.177223333943616]},"geometry_name":"SHAPE","properties":{"BEZEICHNUNG":"VinziMarkt, Vinzenzgemeinschaft","ADRESSE":"11., Hauffgasse 4A","BEZIRK":11,"LANGTEXT":"Sozialmärkte","SE_SDO_ROWID":3038722,"SE_ANNO_CAD_DATA":null,"WEBLINK1":"https://www.wien.gv.at/sozialinfo/content/de/10/InstitutionDetail.do?it_1=2100245"}},{"type":"Feature","id":"SOZIALMARKTOGD.3038031","geometry":{"type":"Point","coordinates":[16.347996497167173,48.205387320752486]},"geometry_name":"SHAPE","properties":{"BEZEICHNUNG":"SOMA Sozialmarkt Wien Neubau, Wiener Hilfswerk, Verein","ADRESSE":"7., Neustiftgasse 73-75","BEZIRK":7,"LANGTEXT":"Sozialmärkte","SE_SDO_ROWID":3038031,"SE_ANNO_CAD_DATA":null,"WEBLINK1":"https://www.wien.gv.at/sozialinfo/content/de/10/InstitutionDetail.do?it_1=2100270"}},{"type":"Feature","id":"SOZIALMARKTOGD.3038616","geometry":{"type":"Point","coordinates":[16.318394569303805,48.21636728136026]},"geometry_name":"SHAPE","properties":{"BEZEICHNUNG":"Sozialmarkt Ottakring Sozialmarkt Wien, gemeinnütziger Verein","ADRESSE":"16., Wilhelminenstraße 22","BEZIRK":16,"LANGTEXT":"Sozialmärkte","SE_SDO_ROWID":3038616,"SE_ANNO_CAD_DATA":null,"WEBLINK1":"https://www.wien.gv.at/sozialinfo/content/de/10/InstitutionDetail.do?it_1=2100309"}},{"type":"Feature","id":"SOZIALMARKTOGD.3038164","geometry":{"type":"Point","coordinates":[16.394297282835232,48.258729772816395]},"geometry_name":"SHAPE","properties":{"BEZEICHNUNG":"Samariterbund Sozialmarkt","ADRESSE":"21., Frömmlgasse 19-31","BEZIRK":21,"LANGTEXT":"Sozialmärkte","SE_SDO_ROWID":3038164,"SE_ANNO_CAD_DATA":null,"WEBLINK1":"https://www.wien.gv.at/sozialinfo/content/de/10/InstitutionDetail.do?it_1=2100411"}},{"type":"Feature","id":"SOZIALMARKTOGD.3039270","geometry":{"type":"Point","coordinates":[16.347996497167173,48.205387320752486]},"geometry_name":"SHAPE","properties":{"BEZEICHNUNG":"Günstige PCs für Sozialmarkt-Kund:innen, Wiener Hilfswerk, Verein","ADRESSE":"7., Neustiftgasse 73-75","BEZIRK":7,"LANGTEXT":"Sozialmärkte","SE_SDO_ROWID":3039270,"SE_ANNO_CAD_DATA":null,"WEBLINK1":"https://www.wien.gv.at/sozialinfo/content/de/10/InstitutionDetail.do?it_1=2100419"}},{"type":"Feature","id":"SOZIALMARKTOGD.3038702","geometry":{"type":"Point","coordinates":[16.32677033812462,48.18465813197456]},"geometry_name":"SHAPE","properties":{"BEZEICHNUNG":"Samariterbund Sozialmarkt","ADRESSE":"15., Pillergasse 20","BEZIRK":15,"LANGTEXT":"Sozialmärkte","SE_SDO_ROWID":3038702,"SE_ANNO_CAD_DATA":null,"WEBLINK1":"https://www.wien.gv.at/sozialinfo/content/de/10/InstitutionDetail.do?it_1=2100554"}},{"type":"Feature","id":"SOZIALMARKTOGD.3038117","geometry":{"type":"Point","coordinates":[16.4336392867922,48.2531633639528]},"geometry_name":"SHAPE","properties":{"BEZEICHNUNG":"Sozialmarkt Donaustadt Sozialmarkt Wien, gemeinnütziger Verein","ADRESSE":"22., Ullreichgasse 13","BEZIRK":22,"LANGTEXT":"Sozialmärkte","SE_SDO_ROWID":3038117,"SE_ANNO_CAD_DATA":null,"WEBLINK1":"https://www.wien.gv.at/sozialinfo/content/de/10/InstitutionDetail.do?it_1=2100876"}},{"type":"Feature","id":"SOZIALMARKTOGD.3039083","geometry":{"type":"Point","coordinates":[16.381130685972842,48.172068125873736]},"geometry_name":"SHAPE","properties":{"BEZEICHNUNG":"Samariterbund Sozialmarkt","ADRESSE":"10., Gellertgasse 42-48","BEZIRK":10,"LANGTEXT":"Sozialmärkte","SE_SDO_ROWID":3039083,"SE_ANNO_CAD_DATA":null,"WEBLINK1":"https://www.wien.gv.at/sozialinfo/content/de/10/InstitutionDetail.do?it_1=2101166"}},{"type":"Feature","id":"SOZIALMARKTOGD.3038053","geometry":{"type":"Point","coordinates":[16.310222345549978,48.197785733665185]},"geometry_name":"SHAPE","properties":{"BEZEICHNUNG":"SOMA Sozialmarkt Wien Penzing, Wiener Hilfswerk, Verein","ADRESSE":"14., Hickelgasse 18","BEZIRK":14,"LANGTEXT":"Sozialmärkte","SE_SDO_ROWID":3038053,"SE_ANNO_CAD_DATA":null,"WEBLINK1":"https://www.wien.gv.at/sozialinfo/content/de/10/InstitutionDetail.do?it_1=2101176"}},{"type":"Feature","id":"SOZIALMARKTOGD.3038193","geometry":{"type":"Point","coordinates":[16.36494813716581,48.253300020856514]},"geometry_name":"SHAPE","properties":{"BEZEICHNUNG":"Verein Futterbox Österreich – Sozialtafel für Haustiere","ADRESSE":"19., Heiligenstädter Straße 88","BEZIRK":19,"LANGTEXT":"Sozialmärkte","SE_SDO_ROWID":3038193,"SE_ANNO_CAD_DATA":null,"WEBLINK1":"https://www.wien.gv.at/sozialinfo/content/de/10/InstitutionDetail.do?it_1=2101297"}},{"type":"Feature","id":"SOZIALMARKTOGD.3038168","geometry":{"type":"Point","coordinates":[16.324691334596128,48.220459988141776]},"geometry_name":"SHAPE","properties":{"BEZEICHNUNG":"FOODPOINT Hernals, Verein START UP","ADRESSE":"17., Hernalser Hauptstraße 116","BEZIRK":17,"LANGTEXT":"Sozialmärkte","SE_SDO_ROWID":3038168,"SE_ANNO_CAD_DATA":null,"WEBLINK1":"https://www.wien.gv.at/sozialinfo/content/de/10/InstitutionDetail.do?it_1=2101323"}},{"type":"Feature","id":"SOZIALMARKTOGD.3038090","geometry":{"type":"Point","coordinates":[16.36731355624737,48.179177388357814]},"geometry_name":"SHAPE","properties":{"BEZEICHNUNG":"Sozialmarkt, Allesverwerter – Verein für sozial Benachteiligte","ADRESSE":"10., Herzgasse 4","BEZIRK":10,"LANGTEXT":"Sozialmärkte","SE_SDO_ROWID":3038090,"SE_ANNO_CAD_DATA":null,"WEBLINK1":"https://www.wien.gv.at/sozialinfo/content/de/10/InstitutionDetail.do?it_1=2101450"}},{"type":"Feature","id":"SOZIALMARKTOGD.3039065","geometry":{"type":"Point","coordinates":[16.38775906245138,48.27912930136758]},"geometry_name":"SHAPE","properties":{"BEZEICHNUNG":"FOODPOINT Pragerstraße, Verein START UP","ADRESSE":"21., Prager Straße 146","BEZIRK":21,"LANGTEXT":"Sozialmärkte","SE_SDO_ROWID":3039065,"SE_ANNO_CAD_DATA":null,"WEBLINK1":"https://www.wien.gv.at/sozialinfo/content/de/10/InstitutionDetail.do?it_1=2101580"}},{"type":"Feature","id":"SOZIALMARKTOGD.3038127","geometry":{"type":"Point","coordinates":[16.329126581184664,48.16414464375802]},"geometry_name":"SHAPE","properties":{"BEZEICHNUNG":"FOODPOINT Meidling, Verein START UP","ADRESSE":"12., Andersengasse 4","BEZIRK":12,"LANGTEXT":"Sozialmärkte","SE_SDO_ROWID":3038127,"SE_ANNO_CAD_DATA":null,"WEBLINK1":"https://www.wien.gv.at/sozialinfo/content/de/10/InstitutionDetail.do?it_1=2101632"}},{"type":"Feature","id":"SOZIALMARKTOGD.3038529","geometry":{"type":"Point","coordinates":[16.340729279376188,48.18056648793772]},"geometry_name":"SHAPE","properties":{"BEZEICHNUNG":"Samariterbund Sozialmarkt","ADRESSE":"12., Böckhgasse 2-4","BEZIRK":12,"LANGTEXT":"Sozialmärkte","SE_SDO_ROWID":3038529,"SE_ANNO_CAD_DATA":null,"WEBLINK1":"https://www.wien.gv.at/sozialinfo/content/de/10/InstitutionDetail.do?it_1=2101716"}},{"type":"Feature","id":"SOZIALMARKTOGD.3038416","geometry":{"type":"Point","coordinates":[16.4147169144408,48.21648568341665]},"geometry_name":"SHAPE","properties":{"BEZEICHNUNG":"FOODPOINT Leopoldstadt, Verein START UP","ADRESSE":"2., Sturgasse 3-5","BEZIRK":2,"LANGTEXT":"Sozialmärkte","SE_SDO_ROWID":3038416,"SE_ANNO_CAD_DATA":null,"WEBLINK1":"https://www.wien.gv.at/sozialinfo/content/de/10/InstitutionDetail.do?it_1=2101728"}},{"type":"Feature","id":"SOZIALMARKTOGD.3038811","geometry":{"type":"Point","coordinates":[16.436001441113877,48.2421896824517]},"geometry_name":"SHAPE","properties":{"BEZEICHNUNG":"Samariterbund Sozialmarkt","ADRESSE":"22., Wagramer Straße 94","BEZIRK":22,"LANGTEXT":"Sozialmärkte","SE_SDO_ROWID":3038811,"SE_ANNO_CAD_DATA":null,"WEBLINK1":"https://www.wien.gv.at/sozialinfo/content/de/10/InstitutionDetail.do?it_1=2101737"}},{"type":"Feature","id":"SOZIALMARKTOGD.3038223","geometry":{"type":"Point","coordinates":[16.318248613873312,48.21043173887596]},"geometry_name":"SHAPE","properties":{"BEZEICHNUNG":"Wiederanfang Sozialmarkt, gem. Verein","ADRESSE":"16., Hasnerstraße 100/37","BEZIRK":16,"LANGTEXT":"Sozialmärkte","SE_SDO_ROWID":3038223,"SE_ANNO_CAD_DATA":null,"WEBLINK1":"https://www.wien.gv.at/sozialinfo/content/de/10/InstitutionDetail.do?it_1=2101769"}},{"type":"Feature","id":"SOZIALMARKTOGD.3038224","geometry":{"type":"Point","coordinates":[16.31843695625708,48.21051270696587]},"geometry_name":"SHAPE","properties":{"BEZEICHNUNG":"Wiederanfang Sozialmarkt, gem. Verein","ADRESSE":"16., Schuhmeierplatz 8","BEZIRK":16,"LANGTEXT":"Sozialmärkte","SE_SDO_ROWID":3038224,"SE_ANNO_CAD_DATA":null,"WEBLINK1":"https://www.wien.gv.at/sozialinfo/content/de/10/InstitutionDetail.do?it_1=2101769"}},{"type":"Feature","id":"SOZIALMARKTOGD.3038528","geometry":{"type":"Point","coordinates":[16.31908611677739,48.200512339606384]},"geometry_name":"SHAPE","properties":{"BEZEICHNUNG":"FOODPOINT Auf der Schmelz, Verein START UP","ADRESSE":"15., Johnstraße 79","BEZIRK":15,"LANGTEXT":"Sozialmärkte","SE_SDO_ROWID":3038528,"SE_ANNO_CAD_DATA":null,"WEBLINK1":"https://www.wien.gv.at/sozialinfo/content/de/10/InstitutionDetail.do?it_1=2101775"}},{"type":"Feature","id":"SOZIALMARKTOGD.3039517","geometry":{"type":"Point","coordinates":[16.360450521443855,48.1967248792735]},"geometry_name":"SHAPE","properties":{"BEZEICHNUNG":"Lebensmittelausgabe, Verein MUT","ADRESSE":"4., Rechte Wienzeile 37/1/3, U4 Station Kettenbrückengasse. Aufgang Na","BEZIRK":4,"LANGTEXT":"Sozialmärkte","SE_SDO_ROWID":3039517,"SE_ANNO_CAD_DATA":null,"WEBLINK1":"https://www.wien.gv.at/sozialinfo/content/de/10/InstitutionDetail.do?it_1=2101796"}},{"type":"Feature","id":"SOZIALMARKTOGD.3039372","geometry":{"type":"Point","coordinates":[16.354381665664203,48.19035878680549]},"geometry_name":"SHAPE","properties":{"BEZEICHNUNG":"SOS-Ballon, Sozialmarkt für Spiel- und Kinderwaren","ADRESSE":"5., Schönbrunner Straße 75","BEZIRK":5,"LANGTEXT":"Sozialmärkte","SE_SDO_ROWID":3039372,"SE_ANNO_CAD_DATA":null,"WEBLINK1":"https://www.wien.gv.at/sozialinfo/content/de/10/InstitutionDetail.do?it_1=2101802"}},{"type":"Feature","id":"SOZIALMARKTOGD.3038149","geometry":{"type":"Point","coordinates":[16.407801561606583,48.198162016028704]},"geometry_name":"SHAPE","properties":{"BEZEICHNUNG":"Verein „PCs für alle“","ADRESSE":"3., Lechnerstraße 1-5, 9/R03","BEZIRK":3,"LANGTEXT":"Sozialmärkte","SE_SDO_ROWID":3038149,"SE_ANNO_CAD_DATA":null,"WEBLINK1":"https://www.wien.gv.at/sozialinfo/content/de/10/InstitutionDetail.do?it_1=2101824"}},{"type":"Feature","id":"SOZIALMARKTOGD.3038308","geometry":{"type":"Point","coordinates":[16.410082733944304,48.2783167255757]},"geometry_name":"SHAPE","properties":{"BEZEICHNUNG":"FOODPOINT Brünnerstraße, Verein START UP","ADRESSE":"21., Brünner Straße 138A","BEZIRK":21,"LANGTEXT":"Sozialmärkte","SE_SDO_ROWID":3038308,"SE_ANNO_CAD_DATA":null,"WEBLINK1":"https://www.wien.gv.at/sozialinfo/content/de/10/InstitutionDetail.do?it_1=2101825"}},{"type":"Feature","id":"SOZIALMARKTOGD.3038015","geometry":{"type":"Point","coordinates":[16.31791329741417,48.20744593754197]},"geometry_name":"SHAPE","properties":{"BEZEICHNUNG":"Sozialmarkt, Allesverwerter – Verein für sozial Benachteiligte","ADRESSE":"16., Possingergasse 26/Ecke Herbststraße","BEZIRK":16,"LANGTEXT":"Sozialmärkte","SE_SDO_ROWID":3038015,"SE_ANNO_CAD_DATA":null,"WEBLINK1":"https://www.wien.gv.at/sozialinfo/content/de/10/InstitutionDetail.do?it_1=2101868"}},{"type":"Feature","id":"SOZIALMARKTOGD.3039549","geometry":{"type":"Point","coordinates":[16.373292615223605,48.172556563754625]},"geometry_name":"SHAPE","properties":{"BEZEICHNUNG":"FOODPOINT Favoriten, Verein START UP","ADRESSE":"10., Muhrengasse 24","BEZIRK":10,"LANGTEXT":"Sozialmärkte","SE_SDO_ROWID":3039549,"SE_ANNO_CAD_DATA":null,"WEBLINK1":"https://www.wien.gv.at/sozialinfo/content/de/10/InstitutionDetail.do?it_1=2101902"}},{"type":"Feature","id":"SOZIALMARKTOGD.3039490","geometry":{"type":"Point","coordinates":[16.31544247695998,48.19562841446001]},"geometry_name":"SHAPE","properties":{"BEZEICHNUNG":"MaBa Mama-Baby-Sozialraum - Diakonie Eine Welt Sozial","ADRESSE":"15., Nobilegasse 23","BEZIRK":15,"LANGTEXT":"Sozialmärkte","SE_SDO_ROWID":3039490,"SE_ANNO_CAD_DATA":null,"WEBLINK1":"https://www.wien.gv.at/sozialinfo/content/de/10/InstitutionDetail.do?it_1=2101913"}},{"type":"Feature","id":"SOZIALMARKTOGD.3039510","geometry":{"type":"Point","coordinates":[16.407139043401276,48.19571626635553]},"geometry_name":"SHAPE","properties":{"BEZEICHNUNG":"FOODPOINT Erdberg, Verein START UP","ADRESSE":"3., Erdbergstraße 154","BEZIRK":3,"LANGTEXT":"Sozialmärkte","SE_SDO_ROWID":3039510,"SE_ANNO_CAD_DATA":null,"WEBLINK1":"https://www.wien.gv.at/sozialinfo/content/de/10/InstitutionDetail.do?it_1=2101918"}},{"type":"Feature","id":"SOZIALMARKTOGD.3039515","geometry":{"type":"Point","coordinates":[16.29102950174805,48.19465915201622]},"geometry_name":"SHAPE","properties":{"BEZEICHNUNG":"FOODPOINT Penzing, Verein START UP","ADRESSE":"14., Linzer Straße 174-180","BEZIRK":14,"LANGTEXT":"Sozialmärkte","SE_SDO_ROWID":3039515,"SE_ANNO_CAD_DATA":null,"WEBLINK1":"https://www.wien.gv.at/sozialinfo/content/de/10/InstitutionDetail.do?it_1=2101919"}},{"type":"Feature","id":"SOZIALMARKTOGD.3038027","geometry":{"type":"Point","coordinates":[16.367165299102005,48.178610852714506]},"geometry_name":"SHAPE","properties":{"BEZEICHNUNG":"FOODPOINT Favoriten, Verein START UP","ADRESSE":"10., Gudrunstraße 171","BEZIRK":10,"LANGTEXT":"Sozialmärkte","SE_SDO_ROWID":3038027,"SE_ANNO_CAD_DATA":null,"WEBLINK1":"https://www.wien.gv.at/sozialinfo/content/de/10/InstitutionDetail.do?it_1=2101971"}}],"crs":{"type":"name","properties":{"name":"urn:ogc:def:crs:EPSG::4326"}}}