{
"type": "FeatureCollection",
"name": "all_doctors",
"crs": { "type": "name", "properties": { "name": "urn:ogc:def:crs:OGC:1.3:CRS84" } },
"features": [
{ "type": "Feature", "properties": { "name": "Michael Rambauske", "type": "doctor" }, "geometry": { "type": "Point", "coordinates": [ 16.3088829, 48.2174731 ] } },
{ "type": "Feature", "properties": { "name": "Adel Michael Elnekheli", "type": "doctor" }, "geometry": { "type": "Point", "coordinates": [ 16.3322578, 48.2094248 ] } },
{ "type": "Feature", "properties": { "name": "Michael Gnant", "type": "doctor" }, "geometry": { "type": "Point", "coordinates": [ 16.3563065, 48.213041 ] } },
{ "type": "Feature", "properties": { "name": "Friedrich Stauffer", "type": "doctor" }, "geometry": { "type": "Point", "coordinates": [ 16.2697461, 48.1876808 ] } },
{ "type": "Feature", "properties": { "name": "Reinhard Ruckser", "type": "doctor" }, "geometry": { "type": "Point", "coordinates": [ 16.5236835, 48.2147434 ] } },
{ "type": "Feature", "properties": { "name": "Alexander Wächter", "type": "doctor" }, "geometry": { "type": "Point", "coordinates": [ 16.3872603, 48.2013885 ] } },
{ "type": "Feature", "properties": { "name": "Alex Salomon", "type": "doctor" }, "geometry": { "type": "Point", "coordinates": [ 16.4572216, 48.2271048 ] } },
{ "type": "Feature", "properties": { "name": "Ernst Kohout", "type": "doctor" }, "geometry": { "type": "Point", "coordinates": [ 16.3258524, 48.2069778 ] } },
{ "type": "Feature", "properties": { "name": "Ursula Denison", "type": "doctor" }, "geometry": { "type": "Point", "coordinates": [ 16.31156843061947, 48.18498935 ] } },
{ "type": "Feature", "properties": { "name": "Adriena Stelzig", "type": "doctor" }, "geometry": { "type": "Point", "coordinates": [ 16.3735961, 48.2117839 ] } },
{ "type": "Feature", "properties": { "name": "Vinod Kumar Sharma", "type": "doctor" }, "geometry": { "type": "Point", "coordinates": [ 16.415300284314547, 48.2783146 ] } },
{ "type": "Feature", "properties": { "name": "Renate Straberger", "type": "doctor" }, "geometry": { "type": "Point", "coordinates": [ 16.4638792, 48.1542247 ] } },
{ "type": "Feature", "properties": { "name": "Evemarie Wolkenstein", "type": "doctor" }, "geometry": { "type": "Point", "coordinates": [ 16.340687, 48.2426939 ] } },
{ "type": "Feature", "properties": { "name": "Martin Herbert Chochole", "type": "doctor" }, "geometry": { "type": "Point", "coordinates": [ 16.3488688, 48.1980293 ] } },
{ "type": "Feature", "properties": { "name": "Alexander Kutschera", "type": "doctor" }, "geometry": { "type": "Point", "coordinates": [ 16.358877458660832, 48.2613087 ] } },
{ "type": "Feature", "properties": { "name": "Claudio Lind", "type": "doctor" }, "geometry": { "type": "Point", "coordinates": [ 16.3456765, 48.2256044 ] } },
{ "type": "Feature", "properties": { "name": "Andreas Naber", "type": "doctor" }, "geometry": { "type": "Point", "coordinates": [ 16.25895972962142, 48.20276925 ] } },
{ "type": "Feature", "properties": { "name": "Gerhard Pomberger", "type": "doctor" }, "geometry": { "type": "Point", "coordinates": [ 16.344948, 48.2157628 ] } },
{ "type": "Feature", "properties": { "name": "Gisela Kenda", "type": "doctor" }, "geometry": { "type": "Point", "coordinates": [ 16.4316161, 48.2864203 ] } },
{ "type": "Feature", "properties": { "name": "Wolfgang Jan", "type": "doctor" }, "geometry": { "type": "Point", "coordinates": [ 16.3624143, 48.2129127 ] } },
{ "type": "Feature", "properties": { "name": "Karl-Heinz Kristen", "type": "doctor" }, "geometry": { "type": "Point", "coordinates": [ 16.3713768, 48.215451 ] } },
{ "type": "Feature", "properties": { "name": "Patricia Gill-Figwer", "type": "doctor" }, "geometry": { "type": "Point", "coordinates": [ 16.2838936, 48.1769262 ] } },
{ "type": "Feature", "properties": { "name": "Clemens Hammer", "type": "doctor" }, "geometry": { "type": "Point", "coordinates": [ 16.391113411998727, 48.19726965 ] } },
{ "type": "Feature", "properties": { "name": "Gabriele Hastermann", "type": "doctor" }, "geometry": { "type": "Point", "coordinates": [ 16.3343597, 48.1912804 ] } },
{ "type": "Feature", "properties": { "name": "Ursula Johanna Hirsch-Radax", "type": "doctor" }, "geometry": { "type": "Point", "coordinates": [ 16.351812537612666, 48.23480615 ] } },
{ "type": "Feature", "properties": { "name": "Gabriele Zimmermann-Föderler", "type": "doctor" }, "geometry": { "type": "Point", "coordinates": [ 16.3338214, 48.2144796 ] } },
{ "type": "Feature", "properties": { "name": "Friedrich Abzieher", "type": "doctor" }, "geometry": { "type": "Point", "coordinates": [ 16.344226, 48.2132417 ] } },
{ "type": "Feature", "properties": { "name": "Peter Manndorff", "type": "doctor" }, "geometry": { "type": "Point", "coordinates": [ 16.2778358, 48.1965173 ] } },
{ "type": "Feature", "properties": { "name": "Michael Brandstetter", "type": "doctor" }, "geometry": { "type": "Point", "coordinates": [ 16.2841466, 48.1871803 ] } },
{ "type": "Feature", "properties": { "name": "Walter Michael Strobl", "type": "doctor" }, "geometry": { "type": "Point", "coordinates": [ 16.382436197888229, 48.18218655 ] } },
{ "type": "Feature", "properties": { "name": "Liselotte Rosen-Burda", "type": "doctor" }, "geometry": { "type": "Point", "coordinates": [ 16.3805537, 48.2435255 ] } },
{ "type": "Feature", "properties": { "name": "Karin Matuszak-Luss", "type": "doctor" }, "geometry": { "type": "Point", "coordinates": [ 16.2873896, 48.1979436 ] } },
{ "type": "Feature", "properties": { "name": "Veronica Adler-Stemberger", "type": "doctor" }, "geometry": { "type": "Point", "coordinates": [ 16.3793425, 48.2131481 ] } },
{ "type": "Feature", "properties": { "name": "Gabriele Wörgötter", "type": "doctor" }, "geometry": { "type": "Point", "coordinates": [ 16.36920064702074, 48.19412475 ] } },
{ "type": "Feature", "properties": { "name": "Peter Fasching", "type": "doctor" }, "geometry": { "type": "Point", "coordinates": [ 16.3632002, 48.2504346 ] } },
{ "type": "Feature", "properties": { "name": "Isolde Morawitz-Haselauer", "type": "doctor" }, "geometry": { "type": "Point", "coordinates": [ 16.388670274126646, 48.21860235 ] } },
{ "type": "Feature", "properties": { "name": "Walter North", "type": "doctor" }, "geometry": { "type": "Point", "coordinates": [ 16.3514067, 48.2060914 ] } },
{ "type": "Feature", "properties": { "name": "Armin Rieger", "type": "doctor" }, "geometry": { "type": "Point", "coordinates": [ 16.282394683537134, 48.18328715 ] } },
{ "type": "Feature", "properties": { "name": "Franz Beer", "type": "doctor" }, "geometry": { "type": "Point", "coordinates": [ 16.3825132, 48.2024518 ] } },
{ "type": "Feature", "properties": { "name": "Karin Stockert", "type": "doctor" }, "geometry": { "type": "Point", "coordinates": [ 16.2820079, 48.1756235 ] } },
{ "type": "Feature", "properties": { "name": "Johannes Kastner", "type": "doctor" }, "geometry": { "type": "Point", "coordinates": [ 16.3484422, 48.2146131 ] } },
{ "type": "Feature", "properties": { "name": "Wolfgang Pirker", "type": "doctor" }, "geometry": { "type": "Point", "coordinates": [ 16.3746127, 48.2085676 ] } },
{ "type": "Feature", "properties": { "name": "Gerard Mertikian", "type": "doctor" }, "geometry": { "type": "Point", "coordinates": [ 16.298122546962439, 48.1746891 ] } },
{ "type": "Feature", "properties": { "name": "Susanna Lang", "type": "doctor" }, "geometry": { "type": "Point", "coordinates": [ 16.286145166964289, 48.18216785 ] } },
{ "type": "Feature", "properties": { "name": "Siegfried Schranz", "type": "doctor" }, "geometry": { "type": "Point", "coordinates": [ 16.3558024, 48.2184539 ] } },
{ "type": "Feature", "properties": { "name": "Spomenka Stankovic", "type": "doctor" }, "geometry": { "type": "Point", "coordinates": [ 16.3461658, 48.1863302 ] } },
{ "type": "Feature", "properties": { "name": "Andreas Kurzreiter", "type": "doctor" }, "geometry": { "type": "Point", "coordinates": [ 16.3722181, 48.1867815 ] } },
{ "type": "Feature", "properties": { "name": "Peter Maria Graziadei", "type": "doctor" }, "geometry": { "type": "Point", "coordinates": [ 16.4079434, 48.2762703 ] } },
{ "type": "Feature", "properties": { "name": "Helga Reckendorfer", "type": "doctor" }, "geometry": { "type": "Point", "coordinates": [ 16.3491315, 48.2159302 ] } },
{ "type": "Feature", "properties": { "name": "Hannes Hickelsberger", "type": "doctor" }, "geometry": { "type": "Point", "coordinates": [ 16.3776481, 48.1991054 ] } },
{ "type": "Feature", "properties": { "name": "Michael Erich Eisenmenger", "type": "doctor" }, "geometry": { "type": "Point", "coordinates": [ 16.3490149, 48.2391019 ] } },
{ "type": "Feature", "properties": { "name": "Elisabeth Tanzmeister", "type": "doctor" }, "geometry": { "type": "Point", "coordinates": [ 16.388670274126646, 48.21860235 ] } },
{ "type": "Feature", "properties": { "name": "Paul Speiser", "type": "doctor" }, "geometry": { "type": "Point", "coordinates": [ 16.358947774414062, 48.2138473 ] } },
{ "type": "Feature", "properties": { "name": "Karl Tremmel", "type": "doctor" }, "geometry": { "type": "Point", "coordinates": [ 16.2918016, 48.1956365 ] } },
{ "type": "Feature", "properties": { "name": "Regina Abel", "type": "doctor" }, "geometry": { "type": "Point", "coordinates": [ 16.350548536011235, 48.1735013 ] } },
{ "type": "Feature", "properties": { "name": "Johann Haltmayer", "type": "doctor" }, "geometry": { "type": "Point", "coordinates": [ 16.3465018, 48.1970477 ] } },
{ "type": "Feature", "properties": { "name": "Gertraud Deecke", "type": "doctor" }, "geometry": { "type": "Point", "coordinates": [ 16.3421945, 48.2546906 ] } },
{ "type": "Feature", "properties": { "name": "Petra Munda", "type": "doctor" }, "geometry": { "type": "Point", "coordinates": [ 16.3419058, 48.2428027 ] } },
{ "type": "Feature", "properties": { "name": "Elisabeth Fertl", "type": "doctor" }, "geometry": { "type": "Point", "coordinates": [ 16.387933209554731, 48.18943155 ] } },
{ "type": "Feature", "properties": { "name": "Martin Zehetmayer", "type": "doctor" }, "geometry": { "type": "Point", "coordinates": [ 16.359474603397747, 48.21661265 ] } },
{ "type": "Feature", "properties": { "name": "Michael Kasparek", "type": "doctor" }, "geometry": { "type": "Point", "coordinates": [ 16.3051338, 48.1677223 ] } },
{ "type": "Feature", "properties": { "name": "Alfred Jany", "type": "doctor" }, "geometry": { "type": "Point", "coordinates": [ 16.3325947, 48.188449 ] } },
{ "type": "Feature", "properties": { "name": "Norbert Howanietz", "type": "doctor" }, "geometry": { "type": "Point", "coordinates": [ 16.346506167527707, 48.1926834 ] } },
{ "type": "Feature", "properties": { "name": "Ivan Amnon Seif", "type": "doctor" }, "geometry": { "type": "Point", "coordinates": [ 16.345876028289911, 48.15856945 ] } },
{ "type": "Feature", "properties": { "name": "Eva Thomas", "type": "doctor" }, "geometry": { "type": "Point", "coordinates": [ 16.299440998813115, 48.22440785 ] } },
{ "type": "Feature", "properties": { "name": "Thomas Reithmayr", "type": "doctor" }, "geometry": { "type": "Point", "coordinates": [ 16.3145243, 48.1656946 ] } },
{ "type": "Feature", "properties": { "name": "Katharina Guttenbrunner", "type": "doctor" }, "geometry": { "type": "Point", "coordinates": [ 16.3476874, 48.2341405 ] } },
{ "type": "Feature", "properties": { "name": "Richard Frey", "type": "doctor" }, "geometry": { "type": "Point", "coordinates": [ 16.339548632037324, 48.21672655 ] } },
{ "type": "Feature", "properties": { "name": "Antoniu Vacariu", "type": "doctor" }, "geometry": { "type": "Point", "coordinates": [ 16.3992891, 48.2577051 ] } },
{ "type": "Feature", "properties": { "name": "Jutta Kath. Bergler-Klein", "type": "doctor" }, "geometry": { "type": "Point", "coordinates": [ 16.3484422, 48.2146131 ] } },
{ "type": "Feature", "properties": { "name": "Daniela Ullisch", "type": "doctor" }, "geometry": { "type": "Point", "coordinates": [ 16.3747784, 48.246574 ] } },
{ "type": "Feature", "properties": { "name": "Karin Brunner", "type": "doctor" }, "geometry": { "type": "Point", "coordinates": [ 16.347486, 48.2160979 ] } },
{ "type": "Feature", "properties": { "name": "Walter Saringer", "type": "doctor" }, "geometry": { "type": "Point", "coordinates": [ 16.3474476, 48.2435305 ] } },
{ "type": "Feature", "properties": { "name": "Peter Francesco Antonio Frigo", "type": "doctor" }, "geometry": { "type": "Point", "coordinates": [ 16.3724183, 48.2108489 ] } },
{ "type": "Feature", "properties": { "name": "Thomas Stompe", "type": "doctor" }, "geometry": { "type": "Point", "coordinates": [ 16.286124261143694, 48.18173635 ] } },
{ "type": "Feature", "properties": { "name": "Andreas Berger", "type": "doctor" }, "geometry": { "type": "Point", "coordinates": [ 16.36739151512765, 48.1917601 ] } },
{ "type": "Feature", "properties": { "name": "Blanca Skorpik", "type": "doctor" }, "geometry": { "type": "Point", "coordinates": [ 16.3626923, 48.1851503 ] } },
{ "type": "Feature", "properties": { "name": "Peter Pregant", "type": "doctor" }, "geometry": { "type": "Point", "coordinates": [ 16.3525679, 48.2005435 ] } },
{ "type": "Feature", "properties": { "name": "Renate Prosenz", "type": "doctor" }, "geometry": { "type": "Point", "coordinates": [ 16.356896007625632, 48.24107645 ] } },
{ "type": "Feature", "properties": { "name": "Kurt Angel", "type": "doctor" }, "geometry": { "type": "Point", "coordinates": [ 16.225809204309975, 48.21373695 ] } },
{ "type": "Feature", "properties": { "name": "Peter Hofmann", "type": "doctor" }, "geometry": { "type": "Point", "coordinates": [ 16.346748966651624, 48.21498365 ] } },
{ "type": "Feature", "properties": { "name": "Alexander Rheinberger-Holohlavsky", "type": "doctor" }, "geometry": { "type": "Point", "coordinates": [ 16.3554405, 48.225984 ] } },
{ "type": "Feature", "properties": { "name": "Peter Machowetz-Müller", "type": "doctor" }, "geometry": { "type": "Point", "coordinates": [ 16.326673164770778, 48.17672265 ] } },
{ "type": "Feature", "properties": { "name": "Abdul R. Malyar", "type": "doctor" }, "geometry": { "type": "Point", "coordinates": [ 16.4046934, 48.2686782 ] } },
{ "type": "Feature", "properties": { "name": "Suzanne Rödler", "type": "doctor" }, "geometry": { "type": "Point", "coordinates": [ 16.3573571, 48.2492227 ] } },
{ "type": "Feature", "properties": { "name": "Andreas Reitner", "type": "doctor" }, "geometry": { "type": "Point", "coordinates": [ 16.3567286, 48.2219494 ] } },
{ "type": "Feature", "properties": { "name": "Gerhard Vavrovsky", "type": "doctor" }, "geometry": { "type": "Point", "coordinates": [ 16.3984155, 48.1955792 ] } },
{ "type": "Feature", "properties": { "name": "Maximiliane Euller", "type": "doctor" }, "geometry": { "type": "Point", "coordinates": [ 16.3263029, 48.1852684 ] } },
{ "type": "Feature", "properties": { "name": "Csilla Neuchrist", "type": "doctor" }, "geometry": { "type": "Point", "coordinates": [ 16.3554654, 48.2267539 ] } },
{ "type": "Feature", "properties": { "name": "Gerhard Kreuzberger", "type": "doctor" }, "geometry": { "type": "Point", "coordinates": [ 16.3907578, 48.1734843 ] } },
{ "type": "Feature", "properties": { "name": "Gero Kramer", "type": "doctor" }, "geometry": { "type": "Point", "coordinates": [ 16.3674488, 48.2102522 ] } },
{ "type": "Feature", "properties": { "name": "Sabine Eichinger-Hasenauer", "type": "doctor" }, "geometry": { "type": "Point", "coordinates": [ 16.3469169, 48.2172587 ] } },
{ "type": "Feature", "properties": { "name": "Richard Fiedler", "type": "doctor" }, "geometry": { "type": "Point", "coordinates": [ 16.3632002, 48.2504346 ] } },
{ "type": "Feature", "properties": { "name": "Karl Renner", "type": "doctor" }, "geometry": { "type": "Point", "coordinates": [ 16.413031, 48.2940572 ] } },
{ "type": "Feature", "properties": { "name": "Regina Katzenschlager", "type": "doctor" }, "geometry": { "type": "Point", "coordinates": [ 16.3643485, 48.2121474 ] } },
{ "type": "Feature", "properties": { "name": "Eva Maria Uher", "type": "doctor" }, "geometry": { "type": "Point", "coordinates": [ 16.3617523, 48.201245 ] } },
{ "type": "Feature", "properties": { "name": "Gabriela Henn-Grigorjan", "type": "doctor" }, "geometry": { "type": "Point", "coordinates": [ 16.280682741576392, 48.1639181 ] } },
{ "type": "Feature", "properties": { "name": "Alexander Gaiger", "type": "doctor" }, "geometry": { "type": "Point", "coordinates": [ 16.339548632037324, 48.21672655 ] } },
{ "type": "Feature", "properties": { "name": "Michael Matthias Emich", "type": "doctor" }, "geometry": { "type": "Point", "coordinates": [ 16.4188682, 48.2928756 ] } },
{ "type": "Feature", "properties": { "name": "Rupert Koller", "type": "doctor" }, "geometry": { "type": "Point", "coordinates": [ 16.345446382406358, 48.21504855 ] } },
{ "type": "Feature", "properties": { "name": "Gerhard Sollner", "type": "doctor" }, "geometry": { "type": "Point", "coordinates": [ 16.3229768, 48.1941357 ] } },
{ "type": "Feature", "properties": { "name": "Gabriele Menzinger", "type": "doctor" }, "geometry": { "type": "Point", "coordinates": [ 16.361951112622954, 48.2484048 ] } },
{ "type": "Feature", "properties": { "name": "Ursula Hollenstein", "type": "doctor" }, "geometry": { "type": "Point", "coordinates": [ 16.3708013, 48.1922685 ] } },
{ "type": "Feature", "properties": { "name": "Gerhard Fruhwürth", "type": "doctor" }, "geometry": { "type": "Point", "coordinates": [ 16.3798111, 48.2111576 ] } },
{ "type": "Feature", "properties": { "name": "Daniela Stockenhuber", "type": "doctor" }, "geometry": { "type": "Point", "coordinates": [ 16.3674488, 48.2102522 ] } },
{ "type": "Feature", "properties": { "name": "Martin Grabenwöger", "type": "doctor" }, "geometry": { "type": "Point", "coordinates": [ 16.3508451, 48.2144277 ] } },
{ "type": "Feature", "properties": { "name": "Schadia Zyadeh-Jinniate", "type": "doctor" }, "geometry": { "type": "Point", "coordinates": [ 16.3193073, 48.2142543 ] } },
{ "type": "Feature", "properties": { "name": "Thomas Kienbacher", "type": "doctor" }, "geometry": { "type": "Point", "coordinates": [ 16.340627993560751, 48.23527355 ] } },
{ "type": "Feature", "properties": { "name": "Hermann Karas", "type": "doctor" }, "geometry": { "type": "Point", "coordinates": [ 16.3548633, 48.2081991 ] } },
{ "type": "Feature", "properties": { "name": "Eveline Daschl-Lakits", "type": "doctor" }, "geometry": { "type": "Point", "coordinates": [ 16.3764326, 48.1804312 ] } },
{ "type": "Feature", "properties": { "name": "Alfred Springer", "type": "doctor" }, "geometry": { "type": "Point", "coordinates": [ 16.3735676, 48.2135119 ] } },
{ "type": "Feature", "properties": { "name": "Hemma Rössler-Schülein", "type": "doctor" }, "geometry": { "type": "Point", "coordinates": [ 16.3529437, 48.2354234 ] } },
{ "type": "Feature", "properties": { "name": "Peter Jaksch", "type": "doctor" }, "geometry": { "type": "Point", "coordinates": [ 16.3254533, 48.2361704 ] } },
{ "type": "Feature", "properties": { "name": "Andreas Walter", "type": "doctor" }, "geometry": { "type": "Point", "coordinates": [ 16.339548632037324, 48.21672655 ] } },
{ "type": "Feature", "properties": { "name": "Katy Zhviti", "type": "doctor" }, "geometry": { "type": "Point", "coordinates": [ 16.434134510026368, 48.2528308 ] } },
{ "type": "Feature", "properties": { "name": "Caroline Kunz", "type": "doctor" }, "geometry": { "type": "Point", "coordinates": [ 16.3409779, 48.2361876 ] } },
{ "type": "Feature", "properties": { "name": "Reinhard Obwegeser", "type": "doctor" }, "geometry": { "type": "Point", "coordinates": [ 16.3631905, 48.2168651 ] } },
{ "type": "Feature", "properties": { "name": "Martha Böck", "type": "doctor" }, "geometry": { "type": "Point", "coordinates": [ 16.5264229, 48.2130799 ] } },
{ "type": "Feature", "properties": { "name": "Eva Eisenhofer", "type": "doctor" }, "geometry": { "type": "Point", "coordinates": [ 16.419802693671315, 48.2119936 ] } },
{ "type": "Feature", "properties": { "name": "Gerda Zamani", "type": "doctor" }, "geometry": { "type": "Point", "coordinates": [ 16.3769789, 48.176311 ] } },
{ "type": "Feature", "properties": { "name": "Hermann Laferl", "type": "doctor" }, "geometry": { "type": "Point", "coordinates": [ 16.3067369, 48.1896023 ] } },
{ "type": "Feature", "properties": { "name": "Bettina Jordan", "type": "doctor" }, "geometry": { "type": "Point", "coordinates": [ 16.3778823, 48.2105647 ] } },
{ "type": "Feature", "properties": { "name": "Christine Vesely", "type": "doctor" }, "geometry": { "type": "Point", "coordinates": [ 16.3672956, 48.2087096 ] } },
{ "type": "Feature", "properties": { "name": "Eva Eggl-Tyl", "type": "doctor" }, "geometry": { "type": "Point", "coordinates": [ 16.3276041, 48.1979951 ] } },
{ "type": "Feature", "properties": { "name": "Jarmila Kotik", "type": "doctor" }, "geometry": { "type": "Point", "coordinates": [ 16.4564807, 48.2156287 ] } },
{ "type": "Feature", "properties": { "name": "Barbara Laimböck", "type": "doctor" }, "geometry": { "type": "Point", "coordinates": [ 16.3727777, 48.2142684 ] } },
{ "type": "Feature", "properties": { "name": "Renate Maria Dörfler", "type": "doctor" }, "geometry": { "type": "Point", "coordinates": [ 16.284277, 48.1755383 ] } },
{ "type": "Feature", "properties": { "name": "Wilfried Wisser", "type": "doctor" }, "geometry": { "type": "Point", "coordinates": [ 16.347803995028009, 48.21466065 ] } },
{ "type": "Feature", "properties": { "name": "Reinhard Becker", "type": "doctor" }, "geometry": { "type": "Point", "coordinates": [ 16.3596581, 48.2014325 ] } },
{ "type": "Feature", "properties": { "name": "Waltraud Fellinger", "type": "doctor" }, "geometry": { "type": "Point", "coordinates": [ 16.341764223322425, 48.20771685 ] } },
{ "type": "Feature", "properties": { "name": "Artur Philipp Worseg", "type": "doctor" }, "geometry": { "type": "Point", "coordinates": [ 16.3330906, 48.225665 ] } },
{ "type": "Feature", "properties": { "name": "Joachim Nordberg", "type": "doctor" }, "geometry": { "type": "Point", "coordinates": [ 16.3042868, 48.2268522 ] } },
{ "type": "Feature", "properties": { "name": "Stefan Palkovits", "type": "doctor" }, "geometry": { "type": "Point", "coordinates": [ 16.3789126, 48.2384598 ] } },
{ "type": "Feature", "properties": { "name": "Johannes Fleischer", "type": "doctor" }, "geometry": { "type": "Point", "coordinates": [ 16.3902466, 48.2173962 ] } },
{ "type": "Feature", "properties": { "name": "Thomas Wasinger", "type": "doctor" }, "geometry": { "type": "Point", "coordinates": [ 16.4590258, 48.225634 ] } },
{ "type": "Feature", "properties": { "name": "Jutta Leth", "type": "doctor" }, "geometry": { "type": "Point", "coordinates": [ 16.3707047, 48.2086286 ] } },
{ "type": "Feature", "properties": { "name": "Juan Alberto Flores", "type": "doctor" }, "geometry": { "type": "Point", "coordinates": [ 16.3473845, 48.2154523 ] } },
{ "type": "Feature", "properties": { "name": "Gerhard Schwestka", "type": "doctor" }, "geometry": { "type": "Point", "coordinates": [ 16.2894453, 48.1867087 ] } },
{ "type": "Feature", "properties": { "name": "Friedrich Breier", "type": "doctor" }, "geometry": { "type": "Point", "coordinates": [ 16.3474476, 48.2435305 ] } },
{ "type": "Feature", "properties": { "name": "Ursula Barnas", "type": "doctor" }, "geometry": { "type": "Point", "coordinates": [ 16.317604442616698, 48.1954804 ] } },
{ "type": "Feature", "properties": { "name": "Verena-Maria Rückl", "type": "doctor" }, "geometry": { "type": "Point", "coordinates": [ 16.3427995, 48.2309927 ] } },
{ "type": "Feature", "properties": { "name": "Manutschehr Parsian", "type": "doctor" }, "geometry": { "type": "Point", "coordinates": [ 16.325144363551317, 48.19105035 ] } },
{ "type": "Feature", "properties": { "name": "Markus Rossmann", "type": "doctor" }, "geometry": { "type": "Point", "coordinates": [ 16.3889907, 48.2177965 ] } },
{ "type": "Feature", "properties": { "name": "Grace Hayek", "type": "doctor" }, "geometry": { "type": "Point", "coordinates": [ 16.456018961593315, 48.25900305 ] } },
{ "type": "Feature", "properties": { "name": "Peter Frühmann", "type": "doctor" }, "geometry": { "type": "Point", "coordinates": [ 16.4156461, 48.1752293 ] } },
{ "type": "Feature", "properties": { "name": "Petra Wrabetz", "type": "doctor" }, "geometry": { "type": "Point", "coordinates": [ 16.3420011, 48.2470506 ] } },
{ "type": "Feature", "properties": { "name": "Christoph Gasche", "type": "doctor" }, "geometry": { "type": "Point", "coordinates": [ 16.3599974, 48.2398696 ] } },
{ "type": "Feature", "properties": { "name": "Karl Georg Heinrich", "type": "doctor" }, "geometry": { "type": "Point", "coordinates": [ 16.3647613, 48.2103336 ] } },
{ "type": "Feature", "properties": { "name": "Christian Otrel", "type": "doctor" }, "geometry": { "type": "Point", "coordinates": [ 16.3440787, 48.23935 ] } },
{ "type": "Feature", "properties": { "name": "Günther Häusler", "type": "doctor" }, "geometry": { "type": "Point", "coordinates": [ 16.3638031, 48.2123736 ] } },
{ "type": "Feature", "properties": { "name": "Martin Gessner", "type": "doctor" }, "geometry": { "type": "Point", "coordinates": [ 16.3080036, 48.1672825 ] } },
{ "type": "Feature", "properties": { "name": "Herbert Sponring", "type": "doctor" }, "geometry": { "type": "Point", "coordinates": [ 16.3046371, 48.2253703 ] } },
{ "type": "Feature", "properties": { "name": "Dan Seidler", "type": "doctor" }, "geometry": { "type": "Point", "coordinates": [ 16.401216414921947, 48.22785365 ] } },
{ "type": "Feature", "properties": { "name": "Richard Kdolsky", "type": "doctor" }, "geometry": { "type": "Point", "coordinates": [ 16.3596654, 48.2394329 ] } },
{ "type": "Feature", "properties": { "name": "Judith Binder", "type": "doctor" }, "geometry": { "type": "Point", "coordinates": [ 16.3519782, 48.2094774 ] } },
{ "type": "Feature", "properties": { "name": "Brigitte Heiling-Kuales", "type": "doctor" }, "geometry": { "type": "Point", "coordinates": [ 16.3470378, 48.2154923 ] } },
{ "type": "Feature", "properties": { "name": "Elisabeth Weeger-Marek", "type": "doctor" }, "geometry": { "type": "Point", "coordinates": [ 16.3359736, 48.194428 ] } },
{ "type": "Feature", "properties": { "name": "Eveline Groiß", "type": "doctor" }, "geometry": { "type": "Point", "coordinates": [ 16.4163687, 48.1745276 ] } },
{ "type": "Feature", "properties": { "name": "Martina Wölfl-Misak", "type": "doctor" }, "geometry": { "type": "Point", "coordinates": [ 16.3652126, 48.2298472 ] } },
{ "type": "Feature", "properties": { "name": "Michael-Georg Lilgenau", "type": "doctor" }, "geometry": { "type": "Point", "coordinates": [ 16.399707638550428, 48.2042427 ] } },
{ "type": "Feature", "properties": { "name": "Eva Maria Liebhart", "type": "doctor" }, "geometry": { "type": "Point", "coordinates": [ 16.3956973, 48.2551519 ] } },
{ "type": "Feature", "properties": { "name": "Solange-Aimee Oldofredi", "type": "doctor" }, "geometry": { "type": "Point", "coordinates": [ 16.3555878, 48.205371 ] } },
{ "type": "Feature", "properties": { "name": "Wolfgang Sagmeister", "type": "doctor" }, "geometry": { "type": "Point", "coordinates": [ 16.4016503, 48.2276148 ] } },
{ "type": "Feature", "properties": { "name": "Karl-Franz Wollein", "type": "doctor" }, "geometry": { "type": "Point", "coordinates": [ 16.415093, 48.2834871 ] } },
{ "type": "Feature", "properties": { "name": "Bernd Balluch", "type": "doctor" }, "geometry": { "type": "Point", "coordinates": [ 16.2793695, 48.148443 ] } },
{ "type": "Feature", "properties": { "name": "Roswitha Prohaska", "type": "doctor" }, "geometry": { "type": "Point", "coordinates": [ 16.3049947, 48.2270522 ] } },
{ "type": "Feature", "properties": { "name": "Oskar Paul Demmer", "type": "doctor" }, "geometry": { "type": "Point", "coordinates": [ 16.3395023, 48.2018951 ] } },
{ "type": "Feature", "properties": { "name": "Miklos Bela Bartok", "type": "doctor" }, "geometry": { "type": "Point", "coordinates": [ 16.347921, 48.1545624 ] } },
{ "type": "Feature", "properties": { "name": "Cornelia Schiefert", "type": "doctor" }, "geometry": { "type": "Point", "coordinates": [ 16.3244483, 48.2308863 ] } },
{ "type": "Feature", "properties": { "name": "Gabriele Grohs", "type": "doctor" }, "geometry": { "type": "Point", "coordinates": [ 16.2898808, 48.1852983 ] } },
{ "type": "Feature", "properties": { "name": "Michael Knotzer", "type": "doctor" }, "geometry": { "type": "Point", "coordinates": [ 16.3195983, 48.2384655 ] } },
{ "type": "Feature", "properties": { "name": "Rafic Kuzbari", "type": "doctor" }, "geometry": { "type": "Point", "coordinates": [ 16.3688668, 48.2101156 ] } },
{ "type": "Feature", "properties": { "name": "Harald Zeisler", "type": "doctor" }, "geometry": { "type": "Point", "coordinates": [ 16.4024095, 48.2512094 ] } },
{ "type": "Feature", "properties": { "name": "Josef Szabo", "type": "doctor" }, "geometry": { "type": "Point", "coordinates": [ 16.4160178, 48.1751031 ] } },
{ "type": "Feature", "properties": { "name": "Wolfgang Drahanowsky", "type": "doctor" }, "geometry": { "type": "Point", "coordinates": [ 16.3784257, 48.2107579 ] } },
{ "type": "Feature", "properties": { "name": "Rolf Ewers", "type": "doctor" }, "geometry": { "type": "Point", "coordinates": [ 16.3405453, 48.2203725 ] } },
{ "type": "Feature", "properties": { "name": "Rene Wenzl", "type": "doctor" }, "geometry": { "type": "Point", "coordinates": [ 16.341499380449051, 48.19169795 ] } },
{ "type": "Feature", "properties": { "name": "Peter Rauch", "type": "doctor" }, "geometry": { "type": "Point", "coordinates": [ 16.4166399, 48.2934127 ] } },
{ "type": "Feature", "properties": { "name": "Peter Krancan", "type": "doctor" }, "geometry": { "type": "Point", "coordinates": [ 16.3772351, 48.2379235 ] } },
{ "type": "Feature", "properties": { "name": "Martin Frömmel", "type": "doctor" }, "geometry": { "type": "Point", "coordinates": [ 16.341573, 48.249237 ] } },
{ "type": "Feature", "properties": { "name": "Ludwig Erlacher", "type": "doctor" }, "geometry": { "type": "Point", "coordinates": [ 16.3713985, 48.2031756 ] } },
{ "type": "Feature", "properties": { "name": "Josef Krugluger", "type": "doctor" }, "geometry": { "type": "Point", "coordinates": [ 16.383844539377719, 48.18446785 ] } },
{ "type": "Feature", "properties": { "name": "Clemens Vass", "type": "doctor" }, "geometry": { "type": "Point", "coordinates": [ 16.3616239, 48.2022228 ] } },
{ "type": "Feature", "properties": { "name": "Eleonore Miller-Reiter", "type": "doctor" }, "geometry": { "type": "Point", "coordinates": [ 16.3558024, 48.2184539 ] } },
{ "type": "Feature", "properties": { "name": "Alexander Giurea", "type": "doctor" }, "geometry": { "type": "Point", "coordinates": [ 16.3469169, 48.2172587 ] } },
{ "type": "Feature", "properties": { "name": "Eva Malis", "type": "doctor" }, "geometry": { "type": "Point", "coordinates": [ 16.377983025561797, 48.2402477 ] } },
{ "type": "Feature", "properties": { "name": "Claudia Reiner-Lawugger", "type": "doctor" }, "geometry": { "type": "Point", "coordinates": [ 16.351981327031698, 48.2107434 ] } },
{ "type": "Feature", "properties": { "name": "Harald Kotzmann", "type": "doctor" }, "geometry": { "type": "Point", "coordinates": [ 16.3571268, 48.21664 ] } },
{ "type": "Feature", "properties": { "name": "Johanna Gartner", "type": "doctor" }, "geometry": { "type": "Point", "coordinates": [ 16.369902731537728, 48.2250011 ] } },
{ "type": "Feature", "properties": { "name": "Michaela Bijak", "type": "doctor" }, "geometry": { "type": "Point", "coordinates": [ 16.3701698, 48.1937592 ] } },
{ "type": "Feature", "properties": { "name": "You-Song Mosch-Kang", "type": "doctor" }, "geometry": { "type": "Point", "coordinates": [ 16.272193216484002, 48.19230335 ] } },
{ "type": "Feature", "properties": { "name": "Halkawt Al-Mufti", "type": "doctor" }, "geometry": { "type": "Point", "coordinates": [ 16.3110454, 48.1495144 ] } },
{ "type": "Feature", "properties": { "name": "Marianne Tichy", "type": "doctor" }, "geometry": { "type": "Point", "coordinates": [ 16.3701008, 48.1870371 ] } },
{ "type": "Feature", "properties": { "name": "Irmtraud Nolz-Brunner", "type": "doctor" }, "geometry": { "type": "Point", "coordinates": [ 16.3182974, 48.2325877 ] } },
{ "type": "Feature", "properties": { "name": "Anna Warlamides", "type": "doctor" }, "geometry": { "type": "Point", "coordinates": [ 16.3469169, 48.2172587 ] } },
{ "type": "Feature", "properties": { "name": "Elisabeth Winkler", "type": "doctor" }, "geometry": { "type": "Point", "coordinates": [ 16.28646325, 48.183457 ] } },
{ "type": "Feature", "properties": { "name": "Wilhelm Wolf", "type": "doctor" }, "geometry": { "type": "Point", "coordinates": [ 16.3402221, 48.193408 ] } },
{ "type": "Feature", "properties": { "name": "Clemens Heribert Brössner", "type": "doctor" }, "geometry": { "type": "Point", "coordinates": [ 16.3484422, 48.2146131 ] } },
{ "type": "Feature", "properties": { "name": "Ilse Stracker-Jandl", "type": "doctor" }, "geometry": { "type": "Point", "coordinates": [ 16.3566907, 48.2177014 ] } },
{ "type": "Feature", "properties": { "name": "Iris Janovsky", "type": "doctor" }, "geometry": { "type": "Point", "coordinates": [ 16.3667801, 48.1949857 ] } },
{ "type": "Feature", "properties": { "name": "Hemanta Shumshere Rana", "type": "doctor" }, "geometry": { "type": "Point", "coordinates": [ 16.3712093, 48.2156731 ] } },
{ "type": "Feature", "properties": { "name": "Alexander Sattler", "type": "doctor" }, "geometry": { "type": "Point", "coordinates": [ 16.3782512, 48.2002193 ] } },
{ "type": "Feature", "properties": { "name": "Traugott Gobert Carl Christoph Skrbensky", "type": "doctor" }, "geometry": { "type": "Point", "coordinates": [ 16.3469169, 48.2172587 ] } },
{ "type": "Feature", "properties": { "name": "Marie-Louise Rössle", "type": "doctor" }, "geometry": { "type": "Point", "coordinates": [ 16.3924368, 48.1972217 ] } },
{ "type": "Feature", "properties": { "name": "Lucia Schachinger", "type": "doctor" }, "geometry": { "type": "Point", "coordinates": [ 16.3419773, 48.227382 ] } },
{ "type": "Feature", "properties": { "name": "Christian Fellenz", "type": "doctor" }, "geometry": { "type": "Point", "coordinates": [ 16.3351261, 48.2467709 ] } },
{ "type": "Feature", "properties": { "name": "Enrico Cosentini", "type": "doctor" }, "geometry": { "type": "Point", "coordinates": [ 16.3492133, 48.2161081 ] } },
{ "type": "Feature", "properties": { "name": "Gabriele Weigl", "type": "doctor" }, "geometry": { "type": "Point", "coordinates": [ 16.3445447, 48.192815 ] } },
{ "type": "Feature", "properties": { "name": "Georg Bischof", "type": "doctor" }, "geometry": { "type": "Point", "coordinates": [ 16.3262308, 48.2192628 ] } },
{ "type": "Feature", "properties": { "name": "Livia Neundlinger", "type": "doctor" }, "geometry": { "type": "Point", "coordinates": [ 16.351238, 48.209325 ] } },
{ "type": "Feature", "properties": { "name": "Anton Wallnöfer", "type": "doctor" }, "geometry": { "type": "Point", "coordinates": [ 16.35214, 48.2413534 ] } },
{ "type": "Feature", "properties": { "name": "Gerhard Hecht", "type": "doctor" }, "geometry": { "type": "Point", "coordinates": [ 16.3777676, 48.2162117 ] } },
{ "type": "Feature", "properties": { "name": "Harald Teufelsbauer", "type": "doctor" }, "geometry": { "type": "Point", "coordinates": [ 16.3431675, 48.2162008 ] } },
{ "type": "Feature", "properties": { "name": "Günther Alth", "type": "doctor" }, "geometry": { "type": "Point", "coordinates": [ 16.436037805640176, 48.24114745 ] } },
{ "type": "Feature", "properties": { "name": "Helmut Simmel", "type": "doctor" }, "geometry": { "type": "Point", "coordinates": [ 16.3910494, 48.19928 ] } },
{ "type": "Feature", "properties": { "name": "Christian Bauer", "type": "doctor" }, "geometry": { "type": "Point", "coordinates": [ 16.451289323699491, 48.2725135 ] } },
{ "type": "Feature", "properties": { "name": "Christian Bancher", "type": "doctor" }, "geometry": { "type": "Point", "coordinates": [ 16.3695082, 48.2100754 ] } },
{ "type": "Feature", "properties": { "name": "Miroslaw Urlicic", "type": "doctor" }, "geometry": { "type": "Point", "coordinates": [ 16.4157259, 48.2131257 ] } },
{ "type": "Feature", "properties": { "name": "Andreas Blab", "type": "doctor" }, "geometry": { "type": "Point", "coordinates": [ 16.284727416124376, 48.1979697 ] } },
{ "type": "Feature", "properties": { "name": "Karl Dantendorfer", "type": "doctor" }, "geometry": { "type": "Point", "coordinates": [ 16.3083629, 48.2103849 ] } },
{ "type": "Feature", "properties": { "name": "Christa Artner", "type": "doctor" }, "geometry": { "type": "Point", "coordinates": [ 16.287403072349257, 48.1384287 ] } },
{ "type": "Feature", "properties": { "name": "Martin Fuchs", "type": "doctor" }, "geometry": { "type": "Point", "coordinates": [ 16.3646023, 48.1799074 ] } },
{ "type": "Feature", "properties": { "name": "Walter Manker", "type": "doctor" }, "geometry": { "type": "Point", "coordinates": [ 16.361951112622954, 48.2484048 ] } },
{ "type": "Feature", "properties": { "name": "Andreas Mondl", "type": "doctor" }, "geometry": { "type": "Point", "coordinates": [ 16.4490477, 48.2374152 ] } },
{ "type": "Feature", "properties": { "name": "Susanne Schunder-Tatzber", "type": "doctor" }, "geometry": { "type": "Point", "coordinates": [ 16.4157259, 48.2131257 ] } },
{ "type": "Feature", "properties": { "name": "Hannes Mayer", "type": "doctor" }, "geometry": { "type": "Point", "coordinates": [ 16.3689043, 48.2260944 ] } },
{ "type": "Feature", "properties": { "name": "Monika Breuer", "type": "doctor" }, "geometry": { "type": "Point", "coordinates": [ 16.3422733, 48.2126368 ] } },
{ "type": "Feature", "properties": { "name": "Barbara Berger-Horak", "type": "doctor" }, "geometry": { "type": "Point", "coordinates": [ 16.3480192, 48.2442853 ] } },
{ "type": "Feature", "properties": { "name": "Eva Krammer", "type": "doctor" }, "geometry": { "type": "Point", "coordinates": [ 16.4858919, 48.2173368 ] } },
{ "type": "Feature", "properties": { "name": "Andreas Wagner", "type": "doctor" }, "geometry": { "type": "Point", "coordinates": [ 16.3718762, 48.2198496 ] } },
{ "type": "Feature", "properties": { "name": "Monika Steininger", "type": "doctor" }, "geometry": { "type": "Point", "coordinates": [ 16.3701601, 48.2332411 ] } },
{ "type": "Feature", "properties": { "name": "Sholeh Kraus", "type": "doctor" }, "geometry": { "type": "Point", "coordinates": [ 16.3430207, 48.2035889 ] } },
{ "type": "Feature", "properties": { "name": "Kamran Gharehbaghi", "type": "doctor" }, "geometry": { "type": "Point", "coordinates": [ 16.436037805640176, 48.24114745 ] } },
{ "type": "Feature", "properties": { "name": "Ulrike Brix", "type": "doctor" }, "geometry": { "type": "Point", "coordinates": [ 16.3130908, 48.198937 ] } },
{ "type": "Feature", "properties": { "name": "Georg Burggasser", "type": "doctor" }, "geometry": { "type": "Point", "coordinates": [ 16.3628968, 48.2102509 ] } },
{ "type": "Feature", "properties": { "name": "Regina Schuber", "type": "doctor" }, "geometry": { "type": "Point", "coordinates": [ 16.3279967, 48.1751869 ] } },
{ "type": "Feature", "properties": { "name": "Severin Schwarzacher", "type": "doctor" }, "geometry": { "type": "Point", "coordinates": [ 16.3484422, 48.2146131 ] } },
{ "type": "Feature", "properties": { "name": "Christiane Maria Prager", "type": "doctor" }, "geometry": { "type": "Point", "coordinates": [ 16.2987998, 48.1893622 ] } },
{ "type": "Feature", "properties": { "name": "Karl Turetschek", "type": "doctor" }, "geometry": { "type": "Point", "coordinates": [ 16.376873625524652, 48.1838234 ] } },
{ "type": "Feature", "properties": { "name": "Doris Lubec", "type": "doctor" }, "geometry": { "type": "Point", "coordinates": [ 16.3421078, 48.1952782 ] } },
{ "type": "Feature", "properties": { "name": "Monika Rupp-Adelmann", "type": "doctor" }, "geometry": { "type": "Point", "coordinates": [ 16.4238266, 48.2362791 ] } },
{ "type": "Feature", "properties": { "name": "Hans Rettinger", "type": "doctor" }, "geometry": { "type": "Point", "coordinates": [ 16.455870991153539, 48.1561163 ] } },
{ "type": "Feature", "properties": { "name": "Helmut Seitz", "type": "doctor" }, "geometry": { "type": "Point", "coordinates": [ 16.3767158, 48.218402 ] } },
{ "type": "Feature", "properties": { "name": "Romeo Zedtwitz-Liebenstein", "type": "doctor" }, "geometry": { "type": "Point", "coordinates": [ 16.330933395371872, 48.18147355 ] } },
{ "type": "Feature", "properties": { "name": "Johanna Franz", "type": "doctor" }, "geometry": { "type": "Point", "coordinates": [ 16.322418819485463, 48.25122385 ] } },
{ "type": "Feature", "properties": { "name": "Sonja Wiesinger", "type": "doctor" }, "geometry": { "type": "Point", "coordinates": [ 16.4106535, 48.2540332 ] } },
{ "type": "Feature", "properties": { "name": "Alexander Albrecht", "type": "doctor" }, "geometry": { "type": "Point", "coordinates": [ 16.3731137, 48.2238908 ] } },
{ "type": "Feature", "properties": { "name": "Christa Forstinger", "type": "doctor" }, "geometry": { "type": "Point", "coordinates": [ 16.3617534, 48.2229915 ] } },
{ "type": "Feature", "properties": { "name": "Ulrike Enzenberg", "type": "doctor" }, "geometry": { "type": "Point", "coordinates": [ 16.31156843061947, 48.18498935 ] } },
{ "type": "Feature", "properties": { "name": "Karin Hartelmüller", "type": "doctor" }, "geometry": { "type": "Point", "coordinates": [ 16.3546564, 48.2361928 ] } },
{ "type": "Feature", "properties": { "name": "Peter Bitzan", "type": "doctor" }, "geometry": { "type": "Point", "coordinates": [ 16.3738788, 48.1842823 ] } },
{ "type": "Feature", "properties": { "name": "Andreas Habeler", "type": "doctor" }, "geometry": { "type": "Point", "coordinates": [ 16.348433545508456, 48.21386105 ] } },
{ "type": "Feature", "properties": { "name": "Adrienne Ranzenberger", "type": "doctor" }, "geometry": { "type": "Point", "coordinates": [ 16.3451732, 48.2016057 ] } },
{ "type": "Feature", "properties": { "name": "Clemens Leitgeb", "type": "doctor" }, "geometry": { "type": "Point", "coordinates": [ 16.382868, 48.2019443 ] } },
{ "type": "Feature", "properties": { "name": "Eva Stadler-Woller", "type": "doctor" }, "geometry": { "type": "Point", "coordinates": [ 16.502109782020124, 48.22485075 ] } },
{ "type": "Feature", "properties": { "name": "Johannes Reiß-Kornfehl", "type": "doctor" }, "geometry": { "type": "Point", "coordinates": [ 16.3467531, 48.2240039 ] } },
{ "type": "Feature", "properties": { "name": "Franz Pfeffel", "type": "doctor" }, "geometry": { "type": "Point", "coordinates": [ 16.3544106, 48.1997421 ] } },
{ "type": "Feature", "properties": { "name": "Anna Horvat-Sablatnig", "type": "doctor" }, "geometry": { "type": "Point", "coordinates": [ 16.3695482, 48.2178541 ] } },
{ "type": "Feature", "properties": { "name": "Katharina Strauss", "type": "doctor" }, "geometry": { "type": "Point", "coordinates": [ 16.380301962461829, 48.2352994 ] } },
{ "type": "Feature", "properties": { "name": "Gottfried Locker", "type": "doctor" }, "geometry": { "type": "Point", "coordinates": [ 16.3469169, 48.2172587 ] } },
{ "type": "Feature", "properties": { "name": "Michael Scholz", "type": "doctor" }, "geometry": { "type": "Point", "coordinates": [ 16.3296894, 48.2314025 ] } },
{ "type": "Feature", "properties": { "name": "Thomas Helbich", "type": "doctor" }, "geometry": { "type": "Point", "coordinates": [ 16.3592396, 48.2061052 ] } },
{ "type": "Feature", "properties": { "name": "Martin Schwarz", "type": "doctor" }, "geometry": { "type": "Point", "coordinates": [ 16.3469169, 48.2172587 ] } },
{ "type": "Feature", "properties": { "name": "Andreas Salat", "type": "doctor" }, "geometry": { "type": "Point", "coordinates": [ 16.3363106, 48.2201465 ] } },
{ "type": "Feature", "properties": { "name": "Anneliese Eisenstädter", "type": "doctor" }, "geometry": { "type": "Point", "coordinates": [ 16.3434719, 48.1946956 ] } },
{ "type": "Feature", "properties": { "name": "Brita Biron-Grau", "type": "doctor" }, "geometry": { "type": "Point", "coordinates": [ 16.358170696946203, 48.1991092 ] } },
{ "type": "Feature", "properties": { "name": "Susanne Spitzauer", "type": "doctor" }, "geometry": { "type": "Point", "coordinates": [ 16.3301088, 48.1823897 ] } },
{ "type": "Feature", "properties": { "name": "Claudia Dworsak", "type": "doctor" }, "geometry": { "type": "Point", "coordinates": [ 16.401402161467566, 48.2247957 ] } },
{ "type": "Feature", "properties": { "name": "Michael Pfeilstöcker", "type": "doctor" }, "geometry": { "type": "Point", "coordinates": [ 16.3461195, 48.1947006 ] } },
{ "type": "Feature", "properties": { "name": "Günter Weiss", "type": "doctor" }, "geometry": { "type": "Point", "coordinates": [ 16.361516362818953, 48.2017948 ] } },
{ "type": "Feature", "properties": { "name": "Wolfgang Kreuzbauer", "type": "doctor" }, "geometry": { "type": "Point", "coordinates": [ 16.3565918, 48.2161128 ] } },
{ "type": "Feature", "properties": { "name": "Gabriele Hobisch", "type": "doctor" }, "geometry": { "type": "Point", "coordinates": [ 16.3642406, 48.1994265 ] } },
{ "type": "Feature", "properties": { "name": "Martin Jurek", "type": "doctor" }, "geometry": { "type": "Point", "coordinates": [ 16.3512075, 48.214194 ] } },
{ "type": "Feature", "properties": { "name": "Boris Peter Todoroff", "type": "doctor" }, "geometry": { "type": "Point", "coordinates": [ 16.3732486, 48.2017964 ] } },
{ "type": "Feature", "properties": { "name": "Michael Palatin", "type": "doctor" }, "geometry": { "type": "Point", "coordinates": [ 16.3729236, 48.2093787 ] } },
{ "type": "Feature", "properties": { "name": "Gernot Zehetbauer", "type": "doctor" }, "geometry": { "type": "Point", "coordinates": [ 16.3729728, 48.1864166 ] } },
{ "type": "Feature", "properties": { "name": "Reinhard Zeyringer", "type": "doctor" }, "geometry": { "type": "Point", "coordinates": [ 16.3305769, 48.1818487 ] } },
{ "type": "Feature", "properties": { "name": "Karin Kroboth-Svoboda", "type": "doctor" }, "geometry": { "type": "Point", "coordinates": [ 16.3110454, 48.1495144 ] } },
{ "type": "Feature", "properties": { "name": "Claudia Schubert-Hock", "type": "doctor" }, "geometry": { "type": "Point", "coordinates": [ 16.3489665, 48.2097971 ] } },
{ "type": "Feature", "properties": { "name": "Gabriela Radnitzky", "type": "doctor" }, "geometry": { "type": "Point", "coordinates": [ 16.3829852, 48.1505426 ] } },
{ "type": "Feature", "properties": { "name": "Vivika Plank", "type": "doctor" }, "geometry": { "type": "Point", "coordinates": [ 16.3222263, 48.229495 ] } },
{ "type": "Feature", "properties": { "name": "Barbara Nowatschek", "type": "doctor" }, "geometry": { "type": "Point", "coordinates": [ 16.3374124, 48.2234262 ] } },
{ "type": "Feature", "properties": { "name": "Michael Dressler", "type": "doctor" }, "geometry": { "type": "Point", "coordinates": [ 16.283715727758768, 48.17801245 ] } },
{ "type": "Feature", "properties": { "name": "Harald Pircher", "type": "doctor" }, "geometry": { "type": "Point", "coordinates": [ 16.3772351, 48.2379235 ] } },
{ "type": "Feature", "properties": { "name": "Amal Soliman", "type": "doctor" }, "geometry": { "type": "Point", "coordinates": [ 16.305043, 48.1976378 ] } },
{ "type": "Feature", "properties": { "name": "Thomas Dirnberger", "type": "doctor" }, "geometry": { "type": "Point", "coordinates": [ 16.3879413, 48.198922 ] } },
{ "type": "Feature", "properties": { "name": "Friedrich Matejicek", "type": "doctor" }, "geometry": { "type": "Point", "coordinates": [ 16.3584008, 48.2396754 ] } },
{ "type": "Feature", "properties": { "name": "Hannes Traxler", "type": "doctor" }, "geometry": { "type": "Point", "coordinates": [ 16.2894453, 48.1867087 ] } },
{ "type": "Feature", "properties": { "name": "Siroos Mirzaei", "type": "doctor" }, "geometry": { "type": "Point", "coordinates": [ 16.457925864533692, 48.2308955 ] } },
{ "type": "Feature", "properties": { "name": "Adalbert Lakits", "type": "doctor" }, "geometry": { "type": "Point", "coordinates": [ 16.3028927, 48.2000812 ] } },
{ "type": "Feature", "properties": { "name": "Christoph Norbert Johannes D. Scholda", "type": "doctor" }, "geometry": { "type": "Point", "coordinates": [ 16.3458191, 48.2164533 ] } },
{ "type": "Feature", "properties": { "name": "Susanne Feistauer", "type": "doctor" }, "geometry": { "type": "Point", "coordinates": [ 16.2723492, 48.1889558 ] } },
{ "type": "Feature", "properties": { "name": "Ulrike Balzer", "type": "doctor" }, "geometry": { "type": "Point", "coordinates": [ 16.4490477, 48.2374152 ] } },
{ "type": "Feature", "properties": { "name": "Kurt Weisser", "type": "doctor" }, "geometry": { "type": "Point", "coordinates": [ 16.478988958195842, 48.2385909 ] } },
{ "type": "Feature", "properties": { "name": "Heinz Regele", "type": "doctor" }, "geometry": { "type": "Point", "coordinates": [ 16.3567253, 48.2182819 ] } },
{ "type": "Feature", "properties": { "name": "Ruth Von Bonin-Schulmeister", "type": "doctor" }, "geometry": { "type": "Point", "coordinates": [ 16.3610053, 48.1844282 ] } },
{ "type": "Feature", "properties": { "name": "Christian Oliver Merl", "type": "doctor" }, "geometry": { "type": "Point", "coordinates": [ 16.3504453, 48.217315 ] } },
{ "type": "Feature", "properties": { "name": "Rainer Grass", "type": "doctor" }, "geometry": { "type": "Point", "coordinates": [ 16.3617523, 48.201245 ] } },
{ "type": "Feature", "properties": { "name": "Kurt Schöck", "type": "doctor" }, "geometry": { "type": "Point", "coordinates": [ 16.4061838, 48.2584683 ] } },
{ "type": "Feature", "properties": { "name": "Helga Paula", "type": "doctor" }, "geometry": { "type": "Point", "coordinates": [ 16.3579131, 48.2109894 ] } },
{ "type": "Feature", "properties": { "name": "Katrin Strauch", "type": "doctor" }, "geometry": { "type": "Point", "coordinates": [ 16.304269, 48.19458 ] } },
{ "type": "Feature", "properties": { "name": "Regine Ahner", "type": "doctor" }, "geometry": { "type": "Point", "coordinates": [ 16.3655996, 48.197235 ] } },
{ "type": "Feature", "properties": { "name": "Mathias Leitner", "type": "doctor" }, "geometry": { "type": "Point", "coordinates": [ 16.29176, 48.1870195 ] } },
{ "type": "Feature", "properties": { "name": "Helmuth Huber", "type": "doctor" }, "geometry": { "type": "Point", "coordinates": [ 16.298122546962439, 48.1746891 ] } },
{ "type": "Feature", "properties": { "name": "Josef Spatt", "type": "doctor" }, "geometry": { "type": "Point", "coordinates": [ 16.3544278, 48.2022317 ] } },
{ "type": "Feature", "properties": { "name": "Sieglinde Deutschmann", "type": "doctor" }, "geometry": { "type": "Point", "coordinates": [ 16.3292501, 48.2326111 ] } },
{ "type": "Feature", "properties": { "name": "Martin Clodi", "type": "doctor" }, "geometry": { "type": "Point", "coordinates": [ 16.3469169, 48.2172587 ] } },
{ "type": "Feature", "properties": { "name": "Friedrich Paul Nagele", "type": "doctor" }, "geometry": { "type": "Point", "coordinates": [ 16.358947774414062, 48.2138473 ] } },
{ "type": "Feature", "properties": { "name": "Rudolf Michael Holzmann", "type": "doctor" }, "geometry": { "type": "Point", "coordinates": [ 16.326782958169936, 48.18261855 ] } },
{ "type": "Feature", "properties": { "name": "Daniela Cravos", "type": "doctor" }, "geometry": { "type": "Point", "coordinates": [ 16.393567624204408, 48.19433935 ] } },
{ "type": "Feature", "properties": { "name": "Hans-Jörg Trnka", "type": "doctor" }, "geometry": { "type": "Point", "coordinates": [ 16.3471149, 48.21493 ] } },
{ "type": "Feature", "properties": { "name": "Jinus Haslinger-Akramian", "type": "doctor" }, "geometry": { "type": "Point", "coordinates": [ 16.5236835, 48.2147434 ] } },
{ "type": "Feature", "properties": { "name": "Elisabeth Lenzinger", "type": "doctor" }, "geometry": { "type": "Point", "coordinates": [ 16.3558024, 48.2184539 ] } },
{ "type": "Feature", "properties": { "name": "Margit Mangiavillano-Szatmary", "type": "doctor" }, "geometry": { "type": "Point", "coordinates": [ 16.4420423, 48.2535178 ] } },
{ "type": "Feature", "properties": { "name": "Christian Tögl", "type": "doctor" }, "geometry": { "type": "Point", "coordinates": [ 16.3178692, 48.1955958 ] } },
{ "type": "Feature", "properties": { "name": "Susanna Michalek", "type": "doctor" }, "geometry": { "type": "Point", "coordinates": [ 16.281789689101686, 48.1360202 ] } },
{ "type": "Feature", "properties": { "name": "Mara Stamenkovic", "type": "doctor" }, "geometry": { "type": "Point", "coordinates": [ 16.366620129905328, 48.2091258 ] } },
{ "type": "Feature", "properties": { "name": "Bernhard Kuderer", "type": "doctor" }, "geometry": { "type": "Point", "coordinates": [ 16.3729728, 48.1864166 ] } },
{ "type": "Feature", "properties": { "name": "Klaus Paulitsch", "type": "doctor" }, "geometry": { "type": "Point", "coordinates": [ 16.3735898, 48.2114455 ] } },
{ "type": "Feature", "properties": { "name": "Manuela Stiller", "type": "doctor" }, "geometry": { "type": "Point", "coordinates": [ 16.3741342, 48.1964008 ] } },
{ "type": "Feature", "properties": { "name": "Andreas Doczy", "type": "doctor" }, "geometry": { "type": "Point", "coordinates": [ 16.3833349, 48.201805 ] } },
{ "type": "Feature", "properties": { "name": "Wolfgang Pfisterer", "type": "doctor" }, "geometry": { "type": "Point", "coordinates": [ 16.3473842, 48.2356383 ] } },
{ "type": "Feature", "properties": { "name": "Elmar Armin Joura", "type": "doctor" }, "geometry": { "type": "Point", "coordinates": [ 16.3117183, 48.212867 ] } },
{ "type": "Feature", "properties": { "name": "Eva Resinger-Kepl", "type": "doctor" }, "geometry": { "type": "Point", "coordinates": [ 16.352720964930082, 48.20694925 ] } },
{ "type": "Feature", "properties": { "name": "Bernhard Molnar", "type": "doctor" }, "geometry": { "type": "Point", "coordinates": [ 16.4415659, 48.2380097 ] } },
{ "type": "Feature", "properties": { "name": "Maria Huf", "type": "doctor" }, "geometry": { "type": "Point", "coordinates": [ 16.351316, 48.2038123 ] } },
{ "type": "Feature", "properties": { "name": "Christian Sulovsky", "type": "doctor" }, "geometry": { "type": "Point", "coordinates": [ 16.290160675541127, 48.1843304 ] } },
{ "type": "Feature", "properties": { "name": "Michael Krainer", "type": "doctor" }, "geometry": { "type": "Point", "coordinates": [ 16.348099, 48.2161153 ] } },
{ "type": "Feature", "properties": { "name": "Margit Wrobel", "type": "doctor" }, "geometry": { "type": "Point", "coordinates": [ 16.3019001, 48.1992977 ] } },
{ "type": "Feature", "properties": { "name": "Franz Watzinger", "type": "doctor" }, "geometry": { "type": "Point", "coordinates": [ 16.3805537, 48.2435255 ] } },
{ "type": "Feature", "properties": { "name": "Hubert Schuster", "type": "doctor" }, "geometry": { "type": "Point", "coordinates": [ 16.3516485, 48.1916897 ] } },
{ "type": "Feature", "properties": { "name": "Clemens Hanika", "type": "doctor" }, "geometry": { "type": "Point", "coordinates": [ 16.3589515, 48.2177041 ] } },
{ "type": "Feature", "properties": { "name": "Siegfried Arthur Thurnher", "type": "doctor" }, "geometry": { "type": "Point", "coordinates": [ 16.3469169, 48.2172587 ] } },
{ "type": "Feature", "properties": { "name": "Harald Alfred Petje", "type": "doctor" }, "geometry": { "type": "Point", "coordinates": [ 16.3715661, 48.2276062 ] } },
{ "type": "Feature", "properties": { "name": "Gisela Urch", "type": "doctor" }, "geometry": { "type": "Point", "coordinates": [ 16.3350494, 48.2075333 ] } },
{ "type": "Feature", "properties": { "name": "Günther Wohlmuth", "type": "doctor" }, "geometry": { "type": "Point", "coordinates": [ 16.3917113, 48.2725801 ] } },
{ "type": "Feature", "properties": { "name": "Claudia Lennkh-Wolfsberg", "type": "doctor" }, "geometry": { "type": "Point", "coordinates": [ 16.3803951, 48.1895079 ] } },
{ "type": "Feature", "properties": { "name": "Thomas Rand", "type": "doctor" }, "geometry": { "type": "Point", "coordinates": [ 16.436037805640176, 48.24114745 ] } },
{ "type": "Feature", "properties": { "name": "Peter Franek", "type": "doctor" }, "geometry": { "type": "Point", "coordinates": [ 16.3371626, 48.2373318 ] } },
{ "type": "Feature", "properties": { "name": "Konrad Pillwein", "type": "doctor" }, "geometry": { "type": "Point", "coordinates": [ 16.3303407, 48.2181477 ] } },
{ "type": "Feature", "properties": { "name": "Heinz Spitz", "type": "doctor" }, "geometry": { "type": "Point", "coordinates": [ 16.352763171408959, 48.23894395 ] } },
{ "type": "Feature", "properties": { "name": "Andreas Temmel", "type": "doctor" }, "geometry": { "type": "Point", "coordinates": [ 16.3460033, 48.1924825 ] } },
{ "type": "Feature", "properties": { "name": "Wilfried Wotke", "type": "doctor" }, "geometry": { "type": "Point", "coordinates": [ 16.4722779, 48.2181232 ] } },
{ "type": "Feature", "properties": { "name": "Herbert Kiss", "type": "doctor" }, "geometry": { "type": "Point", "coordinates": [ 16.3596654, 48.2394329 ] } },
{ "type": "Feature", "properties": { "name": "Wilhelm Prosche", "type": "doctor" }, "geometry": { "type": "Point", "coordinates": [ 16.3140795, 48.2120838 ] } },
{ "type": "Feature", "properties": { "name": "Sylvia Perl-Convalexius", "type": "doctor" }, "geometry": { "type": "Point", "coordinates": [ 16.377644254198913, 48.2311965 ] } },
{ "type": "Feature", "properties": { "name": "Judit Esther Balogh", "type": "doctor" }, "geometry": { "type": "Point", "coordinates": [ 16.508796178141061, 48.2086584 ] } },
{ "type": "Feature", "properties": { "name": "Florian Thalhammer", "type": "doctor" }, "geometry": { "type": "Point", "coordinates": [ 16.3596654, 48.2394329 ] } },
{ "type": "Feature", "properties": { "name": "Thomas Maca", "type": "doctor" }, "geometry": { "type": "Point", "coordinates": [ 16.3735214, 48.2131324 ] } },
{ "type": "Feature", "properties": { "name": "Martin Scharf", "type": "doctor" }, "geometry": { "type": "Point", "coordinates": [ 16.3617523, 48.201245 ] } },
{ "type": "Feature", "properties": { "name": "Sigrid Hochreiter", "type": "doctor" }, "geometry": { "type": "Point", "coordinates": [ 16.360405734281528, 48.20129565 ] } },
{ "type": "Feature", "properties": { "name": "Corinna Kapitany-Schneider", "type": "doctor" }, "geometry": { "type": "Point", "coordinates": [ 16.349500518777937, 48.1986869 ] } },
{ "type": "Feature", "properties": { "name": "Ewald Sedmik", "type": "doctor" }, "geometry": { "type": "Point", "coordinates": [ 16.322929, 48.2370813 ] } },
{ "type": "Feature", "properties": { "name": "Talin Barisani-Asenbauer", "type": "doctor" }, "geometry": { "type": "Point", "coordinates": [ 16.384910456026844, 48.19060755 ] } },
{ "type": "Feature", "properties": { "name": "Svenja Stengl", "type": "doctor" }, "geometry": { "type": "Point", "coordinates": [ 16.3544278, 48.2022317 ] } },
{ "type": "Feature", "properties": { "name": "Bibiana Kalmar", "type": "doctor" }, "geometry": { "type": "Point", "coordinates": [ 16.3432214, 48.1967374 ] } },
{ "type": "Feature", "properties": { "name": "Ulrike Schulz", "type": "doctor" }, "geometry": { "type": "Point", "coordinates": [ 16.376163, 48.2190034 ] } },
{ "type": "Feature", "properties": { "name": "Michael Kisser", "type": "doctor" }, "geometry": { "type": "Point", "coordinates": [ 16.3617523, 48.201245 ] } },
{ "type": "Feature", "properties": { "name": "Bettina Ehrhardt-Felkl", "type": "doctor" }, "geometry": { "type": "Point", "coordinates": [ 16.3936387, 48.2069607 ] } },
{ "type": "Feature", "properties": { "name": "Katharina Hochreiter-Weber", "type": "doctor" }, "geometry": { "type": "Point", "coordinates": [ 16.2886454, 48.2098799 ] } },
{ "type": "Feature", "properties": { "name": "Sonja Brigitte Ulreich", "type": "doctor" }, "geometry": { "type": "Point", "coordinates": [ 16.3074892, 48.1990778 ] } },
{ "type": "Feature", "properties": { "name": "Beda Hartmann", "type": "doctor" }, "geometry": { "type": "Point", "coordinates": [ 16.3531805, 48.2125241 ] } },
{ "type": "Feature", "properties": { "name": "Irene Ohnutek", "type": "doctor" }, "geometry": { "type": "Point", "coordinates": [ 16.3284399, 48.1907939 ] } },
{ "type": "Feature", "properties": { "name": "Luise Enzenberger", "type": "doctor" }, "geometry": { "type": "Point", "coordinates": [ 16.3617747, 48.1878949 ] } },
{ "type": "Feature", "properties": { "name": "Sylvia Amsz", "type": "doctor" }, "geometry": { "type": "Point", "coordinates": [ 16.3129838, 48.1326176 ] } },
{ "type": "Feature", "properties": { "name": "Margot Püspök-Schwarz", "type": "doctor" }, "geometry": { "type": "Point", "coordinates": [ 16.3150255, 48.2131566 ] } },
{ "type": "Feature", "properties": { "name": "Christiane Karin Groinig", "type": "doctor" }, "geometry": { "type": "Point", "coordinates": [ 16.3615408, 48.2185138 ] } },
{ "type": "Feature", "properties": { "name": "Christian Wiederer", "type": "doctor" }, "geometry": { "type": "Point", "coordinates": [ 16.3181182, 48.1480166 ] } },
{ "type": "Feature", "properties": { "name": "Reinhard Eher", "type": "doctor" }, "geometry": { "type": "Point", "coordinates": [ 16.3183057, 48.2115306 ] } },
{ "type": "Feature", "properties": { "name": "Kamel Kopty", "type": "doctor" }, "geometry": { "type": "Point", "coordinates": [ 16.3469169, 48.2172587 ] } },
{ "type": "Feature", "properties": { "name": "Doris Wallentin", "type": "doctor" }, "geometry": { "type": "Point", "coordinates": [ 16.3422635, 48.2463559 ] } },
{ "type": "Feature", "properties": { "name": "Ursula Kohlhuber", "type": "doctor" }, "geometry": { "type": "Point", "coordinates": [ 16.4323123, 48.2396662 ] } },
{ "type": "Feature", "properties": { "name": "Anton Hommer", "type": "doctor" }, "geometry": { "type": "Point", "coordinates": [ 16.343792026917718, 48.2122901 ] } },
{ "type": "Feature", "properties": { "name": "Susanne Katzensteiner", "type": "doctor" }, "geometry": { "type": "Point", "coordinates": [ 16.2853196, 48.1882445 ] } },
{ "type": "Feature", "properties": { "name": "Manfred Kühler", "type": "doctor" }, "geometry": { "type": "Point", "coordinates": [ 16.4529944, 48.2389439 ] } },
{ "type": "Feature", "properties": { "name": "Marcus Atteneder", "type": "doctor" }, "geometry": { "type": "Point", "coordinates": [ 16.325913716475306, 48.2193712 ] } },
{ "type": "Feature", "properties": { "name": "Martina Malus", "type": "doctor" }, "geometry": { "type": "Point", "coordinates": [ 16.4206521, 48.253264 ] } },
{ "type": "Feature", "properties": { "name": "Günter Sokol", "type": "doctor" }, "geometry": { "type": "Point", "coordinates": [ 16.307379, 48.16183075 ] } },
{ "type": "Feature", "properties": { "name": "Gerda Dorfinger-Gyurjacs", "type": "doctor" }, "geometry": { "type": "Point", "coordinates": [ 16.318620576948973, 48.13772655 ] } },
{ "type": "Feature", "properties": { "name": "Reinald Brezovsky", "type": "doctor" }, "geometry": { "type": "Point", "coordinates": [ 16.3537314, 48.2362834 ] } },
{ "type": "Feature", "properties": { "name": "Ella Asseryanis", "type": "doctor" }, "geometry": { "type": "Point", "coordinates": [ 16.3600003, 48.2173974 ] } },
{ "type": "Feature", "properties": { "name": "Christoforos Konnaris", "type": "doctor" }, "geometry": { "type": "Point", "coordinates": [ 16.3588761, 48.2163571 ] } },
{ "type": "Feature", "properties": { "name": "Reinhard Zettl", "type": "doctor" }, "geometry": { "type": "Point", "coordinates": [ 16.310591501084424, 48.19946685 ] } },
{ "type": "Feature", "properties": { "name": "Kurosh Paya", "type": "doctor" }, "geometry": { "type": "Point", "coordinates": [ 16.3709938, 48.2314964 ] } },
{ "type": "Feature", "properties": { "name": "Joseph Saliba", "type": "doctor" }, "geometry": { "type": "Point", "coordinates": [ 16.4638792, 48.1542247 ] } },
{ "type": "Feature", "properties": { "name": "Gerhard Sliutz", "type": "doctor" }, "geometry": { "type": "Point", "coordinates": [ 16.307845594100002, 48.2506967 ] } },
{ "type": "Feature", "properties": { "name": "Friedrich Gill", "type": "doctor" }, "geometry": { "type": "Point", "coordinates": [ 16.3588643, 48.1916616 ] } },
{ "type": "Feature", "properties": { "name": "Florian Mittermayer", "type": "doctor" }, "geometry": { "type": "Point", "coordinates": [ 16.3738788, 48.1842823 ] } },
{ "type": "Feature", "properties": { "name": "Bernhard Rintelen", "type": "doctor" }, "geometry": { "type": "Point", "coordinates": [ 16.3825814, 48.196505 ] } },
{ "type": "Feature", "properties": { "name": "Wolfgang Oberhofer", "type": "doctor" }, "geometry": { "type": "Point", "coordinates": [ 16.329901755108594, 48.18115315 ] } },
{ "type": "Feature", "properties": { "name": "Brigitta Freundl", "type": "doctor" }, "geometry": { "type": "Point", "coordinates": [ 16.3301088, 48.1823897 ] } },
{ "type": "Feature", "properties": { "name": "Isolde Göttfried", "type": "doctor" }, "geometry": { "type": "Point", "coordinates": [ 16.3797741, 48.1710281 ] } },
{ "type": "Feature", "properties": { "name": "Ahmad Othman Hamad", "type": "doctor" }, "geometry": { "type": "Point", "coordinates": [ 16.4167194, 48.2291766 ] } },
{ "type": "Feature", "properties": { "name": "Elisabeth Gingrich", "type": "doctor" }, "geometry": { "type": "Point", "coordinates": [ 16.326150523226659, 48.219908 ] } },
{ "type": "Feature", "properties": { "name": "Walter Tschugguel", "type": "doctor" }, "geometry": { "type": "Point", "coordinates": [ 16.3667521, 48.2013558 ] } },
{ "type": "Feature", "properties": { "name": "Karin Kolde", "type": "doctor" }, "geometry": { "type": "Point", "coordinates": [ 16.346195211320556, 48.2025007 ] } },
{ "type": "Feature", "properties": { "name": "Nadja Karnik", "type": "doctor" }, "geometry": { "type": "Point", "coordinates": [ 16.3504954, 48.2079801 ] } },
{ "type": "Feature", "properties": { "name": "Johann Perl", "type": "doctor" }, "geometry": { "type": "Point", "coordinates": [ 16.3108698, 48.1991422 ] } },
{ "type": "Feature", "properties": { "name": "Christian Georg Lhotka", "type": "doctor" }, "geometry": { "type": "Point", "coordinates": [ 16.3719643, 48.2155316 ] } },
{ "type": "Feature", "properties": { "name": "Roland Beisteiner", "type": "doctor" }, "geometry": { "type": "Point", "coordinates": [ 16.3469169, 48.2172587 ] } },
{ "type": "Feature", "properties": { "name": "Michael Walter Sator", "type": "doctor" }, "geometry": { "type": "Point", "coordinates": [ 16.3607745, 48.2414941 ] } },
{ "type": "Feature", "properties": { "name": "Ursula Wenninger", "type": "doctor" }, "geometry": { "type": "Point", "coordinates": [ 16.3701601, 48.2332411 ] } },
{ "type": "Feature", "properties": { "name": "Marietta Coloini", "type": "doctor" }, "geometry": { "type": "Point", "coordinates": [ 16.3567286, 48.2219494 ] } },
{ "type": "Feature", "properties": { "name": "Lydia Steurer-Georgiew", "type": "doctor" }, "geometry": { "type": "Point", "coordinates": [ 16.3941257, 48.1990218 ] } },
{ "type": "Feature", "properties": { "name": "Michael Mischuretz", "type": "doctor" }, "geometry": { "type": "Point", "coordinates": [ 16.4556922, 48.2267203 ] } },
{ "type": "Feature", "properties": { "name": "Melitta Bohn-Rieder", "type": "doctor" }, "geometry": { "type": "Point", "coordinates": [ 16.391145154638295, 48.17475175 ] } },
{ "type": "Feature", "properties": { "name": "Rita Kraft", "type": "doctor" }, "geometry": { "type": "Point", "coordinates": [ 16.2904913, 48.2015278 ] } },
{ "type": "Feature", "properties": { "name": "Paul Groß", "type": "doctor" }, "geometry": { "type": "Point", "coordinates": [ 16.29273085, 48.2154981 ] } },
{ "type": "Feature", "properties": { "name": "Michael Wolzt", "type": "doctor" }, "geometry": { "type": "Point", "coordinates": [ 16.3646365, 48.2267088 ] } },
{ "type": "Feature", "properties": { "name": "Gabriele Sesztak-Greinecker", "type": "doctor" }, "geometry": { "type": "Point", "coordinates": [ 16.3990152, 48.2583075 ] } },
{ "type": "Feature", "properties": { "name": "Claudia Nitsch", "type": "doctor" }, "geometry": { "type": "Point", "coordinates": [ 16.389547685542581, 48.17240275 ] } },
{ "type": "Feature", "properties": { "name": "Bettina Fink", "type": "doctor" }, "geometry": { "type": "Point", "coordinates": [ 16.286987695428017, 48.1894056 ] } },
{ "type": "Feature", "properties": { "name": "Ulrike Eisenhardt", "type": "doctor" }, "geometry": { "type": "Point", "coordinates": [ 16.3728147, 48.2135063 ] } },
{ "type": "Feature", "properties": { "name": "Teresa Konieczny", "type": "doctor" }, "geometry": { "type": "Point", "coordinates": [ 16.3266243, 48.2197584 ] } },
{ "type": "Feature", "properties": { "name": "Herbert Pötz", "type": "doctor" }, "geometry": { "type": "Point", "coordinates": [ 16.3747642, 48.2073232 ] } },
{ "type": "Feature", "properties": { "name": "Doris Seboth-Essmann", "type": "doctor" }, "geometry": { "type": "Point", "coordinates": [ 16.3826223, 48.1436221 ] } },
{ "type": "Feature", "properties": { "name": "Renate Josefa Magdalena Hörmann", "type": "doctor" }, "geometry": { "type": "Point", "coordinates": [ 16.3234546, 48.1644413 ] } },
{ "type": "Feature", "properties": { "name": "Birgit Hofmann-Ehrhart", "type": "doctor" }, "geometry": { "type": "Point", "coordinates": [ 16.391208325, 48.1996104 ] } },
{ "type": "Feature", "properties": { "name": "Marlies Knoll", "type": "doctor" }, "geometry": { "type": "Point", "coordinates": [ 16.3932236, 48.2664863 ] } },
{ "type": "Feature", "properties": { "name": "Thomas Laml", "type": "doctor" }, "geometry": { "type": "Point", "coordinates": [ 16.3484422, 48.2146131 ] } },
{ "type": "Feature", "properties": { "name": "Otto Lauer", "type": "doctor" }, "geometry": { "type": "Point", "coordinates": [ 16.436037805640176, 48.24114745 ] } },
{ "type": "Feature", "properties": { "name": "Peter Schnider", "type": "doctor" }, "geometry": { "type": "Point", "coordinates": [ 16.3434243, 48.2181623 ] } },
{ "type": "Feature", "properties": { "name": "Silvia Wogritsch", "type": "doctor" }, "geometry": { "type": "Point", "coordinates": [ 16.2950256, 48.187223 ] } },
{ "type": "Feature", "properties": { "name": "Franz Windisch", "type": "doctor" }, "geometry": { "type": "Point", "coordinates": [ 16.3596654, 48.2394329 ] } },
{ "type": "Feature", "properties": { "name": "Isabella Galid-Lobmeyr", "type": "doctor" }, "geometry": { "type": "Point", "coordinates": [ 16.310116778761081, 48.1281914 ] } },
{ "type": "Feature", "properties": { "name": "Sebastian Szlezak", "type": "doctor" }, "geometry": { "type": "Point", "coordinates": [ 16.297353031156462, 48.1869146 ] } },
{ "type": "Feature", "properties": { "name": "Wolfgang Spiegel", "type": "doctor" }, "geometry": { "type": "Point", "coordinates": [ 16.3199232, 48.2200085 ] } },
{ "type": "Feature", "properties": { "name": "Verena Atteneder-Tischler", "type": "doctor" }, "geometry": { "type": "Point", "coordinates": [ 16.2816596, 48.2411519 ] } },
{ "type": "Feature", "properties": { "name": "Heinz Strohmer", "type": "doctor" }, "geometry": { "type": "Point", "coordinates": [ 16.3612883, 48.1999814 ] } },
{ "type": "Feature", "properties": { "name": "Barbara Borst-Krafek", "type": "doctor" }, "geometry": { "type": "Point", "coordinates": [ 16.4080741, 48.2747691 ] } },
{ "type": "Feature", "properties": { "name": "Heinrich Schmidt", "type": "doctor" }, "geometry": { "type": "Point", "coordinates": [ 16.41791426565657, 48.2154604 ] } },
{ "type": "Feature", "properties": { "name": "Martin Prskavec", "type": "doctor" }, "geometry": { "type": "Point", "coordinates": [ 16.3484422, 48.2146131 ] } },
{ "type": "Feature", "properties": { "name": "Ingrid Nowotny", "type": "doctor" }, "geometry": { "type": "Point", "coordinates": [ 16.283860194196684, 48.1890767 ] } },
{ "type": "Feature", "properties": { "name": "Robert Kögl", "type": "doctor" }, "geometry": { "type": "Point", "coordinates": [ 16.266640646012704, 48.1925758 ] } },
{ "type": "Feature", "properties": { "name": "Nadia Schmid-Stino", "type": "doctor" }, "geometry": { "type": "Point", "coordinates": [ 16.3952737, 48.2547424 ] } },
{ "type": "Feature", "properties": { "name": "Sabine Renhardt", "type": "doctor" }, "geometry": { "type": "Point", "coordinates": [ 16.3727777, 48.2142684 ] } },
{ "type": "Feature", "properties": { "name": "Werner Hödl", "type": "doctor" }, "geometry": { "type": "Point", "coordinates": [ 16.3490024, 48.2086608 ] } },
{ "type": "Feature", "properties": { "name": "Christian Kellner", "type": "doctor" }, "geometry": { "type": "Point", "coordinates": [ 16.283841317007642, 48.15001085 ] } },
{ "type": "Feature", "properties": { "name": "Monika Cartellieri", "type": "doctor" }, "geometry": { "type": "Point", "coordinates": [ 16.3474476, 48.2435305 ] } },
{ "type": "Feature", "properties": { "name": "Birgit Knerer-Schally", "type": "doctor" }, "geometry": { "type": "Point", "coordinates": [ 16.3469169, 48.2172587 ] } },
{ "type": "Feature", "properties": { "name": "Gerald Wiest", "type": "doctor" }, "geometry": { "type": "Point", "coordinates": [ 16.2947698, 48.1745751 ] } },
{ "type": "Feature", "properties": { "name": "Christian Alex. Pärtan", "type": "doctor" }, "geometry": { "type": "Point", "coordinates": [ 16.345494, 48.2244489 ] } },
{ "type": "Feature", "properties": { "name": "Sibylle Stifter", "type": "doctor" }, "geometry": { "type": "Point", "coordinates": [ 16.396581999815822, 48.2579129 ] } },
{ "type": "Feature", "properties": { "name": "Sigrid Brantner-Inthaler", "type": "doctor" }, "geometry": { "type": "Point", "coordinates": [ 16.3652336, 48.1974467 ] } },
{ "type": "Feature", "properties": { "name": "Omer Oramary", "type": "doctor" }, "geometry": { "type": "Point", "coordinates": [ 16.385849584060356, 48.1907045 ] } },
{ "type": "Feature", "properties": { "name": "Heinrich Nesshyba", "type": "doctor" }, "geometry": { "type": "Point", "coordinates": [ 16.3831184, 48.2892607 ] } },
{ "type": "Feature", "properties": { "name": "Andreas Lange", "type": "doctor" }, "geometry": { "type": "Point", "coordinates": [ 16.457925864533692, 48.2308955 ] } },
{ "type": "Feature", "properties": { "name": "Hans Christoph Klingler", "type": "doctor" }, "geometry": { "type": "Point", "coordinates": [ 16.3479445, 48.2158625 ] } },
{ "type": "Feature", "properties": { "name": "Thomas Johannes Philipp", "type": "doctor" }, "geometry": { "type": "Point", "coordinates": [ 16.3643485, 48.2121474 ] } },
{ "type": "Feature", "properties": { "name": "Andreas Denk", "type": "doctor" }, "geometry": { "type": "Point", "coordinates": [ 16.369899881968465, 48.19356665 ] } },
{ "type": "Feature", "properties": { "name": "Sonja Dolezal", "type": "doctor" }, "geometry": { "type": "Point", "coordinates": [ 16.4440468, 48.2738532 ] } },
{ "type": "Feature", "properties": { "name": "Julius Robert Lukas", "type": "doctor" }, "geometry": { "type": "Point", "coordinates": [ 16.3474476, 48.2435305 ] } },
{ "type": "Feature", "properties": { "name": "Wolfgang Lalouschek", "type": "doctor" }, "geometry": { "type": "Point", "coordinates": [ 16.2992327, 48.1847393 ] } },
{ "type": "Feature", "properties": { "name": "Christian Peters-Engl", "type": "doctor" }, "geometry": { "type": "Point", "coordinates": [ 16.339393322721435, 48.20154925 ] } },
{ "type": "Feature", "properties": { "name": "Karl Dorfinger", "type": "doctor" }, "geometry": { "type": "Point", "coordinates": [ 16.318620576948973, 48.13772655 ] } },
{ "type": "Feature", "properties": { "name": "Peter Langer", "type": "doctor" }, "geometry": { "type": "Point", "coordinates": [ 16.3706905, 48.2018168 ] } },
{ "type": "Feature", "properties": { "name": "Stephan Madersbacher", "type": "doctor" }, "geometry": { "type": "Point", "coordinates": [ 16.3533288, 48.2197292 ] } },
{ "type": "Feature", "properties": { "name": "Reinhard Fichtl", "type": "doctor" }, "geometry": { "type": "Point", "coordinates": [ 16.457600747019441, 48.1509769 ] } },
{ "type": "Feature", "properties": { "name": "Stefan Obergottsberger", "type": "doctor" }, "geometry": { "type": "Point", "coordinates": [ 16.3551402, 48.2304089 ] } },
{ "type": "Feature", "properties": { "name": "Barbara Horvath-Mechtler", "type": "doctor" }, "geometry": { "type": "Point", "coordinates": [ 16.329494507003574, 48.19945205 ] } },
{ "type": "Feature", "properties": { "name": "Elisabeth Hackl", "type": "doctor" }, "geometry": { "type": "Point", "coordinates": [ 16.271552002974133, 48.1892247 ] } },
{ "type": "Feature", "properties": { "name": "Jomard Hajo", "type": "doctor" }, "geometry": { "type": "Point", "coordinates": [ 16.3554036, 48.2269835 ] } },
{ "type": "Feature", "properties": { "name": "Siegfried Gallauner", "type": "doctor" }, "geometry": { "type": "Point", "coordinates": [ 16.345876028289911, 48.15856945 ] } },
{ "type": "Feature", "properties": { "name": "Helga Weiser", "type": "doctor" }, "geometry": { "type": "Point", "coordinates": [ 16.285835, 48.1886256 ] } },
{ "type": "Feature", "properties": { "name": "Stefan Holub", "type": "doctor" }, "geometry": { "type": "Point", "coordinates": [ 16.3175469, 48.2235813 ] } },
{ "type": "Feature", "properties": { "name": "Karl Hoffmann", "type": "doctor" }, "geometry": { "type": "Point", "coordinates": [ 16.387134347228965, 48.14001555 ] } },
{ "type": "Feature", "properties": { "name": "Andreas Kuchar", "type": "doctor" }, "geometry": { "type": "Point", "coordinates": [ 16.3616239, 48.2022228 ] } },
{ "type": "Feature", "properties": { "name": "Peter Kaspar Vogel", "type": "doctor" }, "geometry": { "type": "Point", "coordinates": [ 16.3347836, 48.1769295 ] } },
{ "type": "Feature", "properties": { "name": "Manfred Greitbauer", "type": "doctor" }, "geometry": { "type": "Point", "coordinates": [ 16.3484422, 48.2146131 ] } },
{ "type": "Feature", "properties": { "name": "Alfred Röggla", "type": "doctor" }, "geometry": { "type": "Point", "coordinates": [ 16.3950794, 48.2051641 ] } },
{ "type": "Feature", "properties": { "name": "Robert Ollerieth", "type": "doctor" }, "geometry": { "type": "Point", "coordinates": [ 16.3076789, 48.2164285 ] } },
{ "type": "Feature", "properties": { "name": "Ahmad Reza Walipour", "type": "doctor" }, "geometry": { "type": "Point", "coordinates": [ 16.4411137, 48.2692797 ] } },
{ "type": "Feature", "properties": { "name": "Ronald Koppelent", "type": "doctor" }, "geometry": { "type": "Point", "coordinates": [ 16.3682445, 48.1960231 ] } },
{ "type": "Feature", "properties": { "name": "Petra Krepler", "type": "doctor" }, "geometry": { "type": "Point", "coordinates": [ 16.3469169, 48.2172587 ] } },
{ "type": "Feature", "properties": { "name": "Barbara Charlotte Ulrike Kadi", "type": "doctor" }, "geometry": { "type": "Point", "coordinates": [ 16.3498321, 48.1998762 ] } },
{ "type": "Feature", "properties": { "name": "Gerald Schnürer", "type": "doctor" }, "geometry": { "type": "Point", "coordinates": [ 16.2683994, 48.1480964 ] } },
{ "type": "Feature", "properties": { "name": "Tatjana Paternostro-Sluga", "type": "doctor" }, "geometry": { "type": "Point", "coordinates": [ 16.3551989, 48.24051 ] } },
{ "type": "Feature", "properties": { "name": "Richard Edl", "type": "doctor" }, "geometry": { "type": "Point", "coordinates": [ 16.326562550672698, 48.2046447 ] } },
{ "type": "Feature", "properties": { "name": "Peter Weimann", "type": "doctor" }, "geometry": { "type": "Point", "coordinates": [ 16.3819055, 48.215943 ] } },
{ "type": "Feature", "properties": { "name": "Regina Mika", "type": "doctor" }, "geometry": { "type": "Point", "coordinates": [ 16.3924368, 48.1972217 ] } },
{ "type": "Feature", "properties": { "name": "Manfred Zehetgruber", "type": "doctor" }, "geometry": { "type": "Point", "coordinates": [ 16.2901717, 48.1902273 ] } },
{ "type": "Feature", "properties": { "name": "Roland Mader", "type": "doctor" }, "geometry": { "type": "Point", "coordinates": [ 16.3591281, 48.1909542 ] } },
{ "type": "Feature", "properties": { "name": "Christian Fialka", "type": "doctor" }, "geometry": { "type": "Point", "coordinates": [ 16.343943438189662, 48.1727418 ] } },
{ "type": "Feature", "properties": { "name": "Franz Martin Riegler", "type": "doctor" }, "geometry": { "type": "Point", "coordinates": [ 16.3492133, 48.2161081 ] } },
{ "type": "Feature", "properties": { "name": "Gerald Mundigler", "type": "doctor" }, "geometry": { "type": "Point", "coordinates": [ 16.2901717, 48.1902273 ] } },
{ "type": "Feature", "properties": { "name": "Eva Donner", "type": "doctor" }, "geometry": { "type": "Point", "coordinates": [ 16.3569518, 48.2557598 ] } },
{ "type": "Feature", "properties": { "name": "Gabriele Iampaglia-Springer", "type": "doctor" }, "geometry": { "type": "Point", "coordinates": [ 16.3538368, 48.2413664 ] } },
{ "type": "Feature", "properties": { "name": "Wolfgang Freilinger LL.M.", "type": "doctor" }, "geometry": { "type": "Point", "coordinates": [ 16.2821189, 48.1972794 ] } },
{ "type": "Feature", "properties": { "name": "Maria Christine Dobner", "type": "doctor" }, "geometry": { "type": "Point", "coordinates": [ 16.3441746, 48.2142728 ] } },
{ "type": "Feature", "properties": { "name": "Eva Ries", "type": "doctor" }, "geometry": { "type": "Point", "coordinates": [ 16.4238266, 48.2362791 ] } },
{ "type": "Feature", "properties": { "name": "Helmut Leonhartsberger", "type": "doctor" }, "geometry": { "type": "Point", "coordinates": [ 16.3815082, 48.2130596 ] } },
{ "type": "Feature", "properties": { "name": "Ursula Klaar", "type": "doctor" }, "geometry": { "type": "Point", "coordinates": [ 16.378722111632598, 48.17641575 ] } },
{ "type": "Feature", "properties": { "name": "Veronika Franke", "type": "doctor" }, "geometry": { "type": "Point", "coordinates": [ 16.3653449, 48.1900937 ] } },
{ "type": "Feature", "properties": { "name": "Ursula Wolff", "type": "doctor" }, "geometry": { "type": "Point", "coordinates": [ 16.3748713, 48.1707088 ] } },
{ "type": "Feature", "properties": { "name": "Jörg Knabl", "type": "doctor" }, "geometry": { "type": "Point", "coordinates": [ 16.3770765, 48.2105842 ] } },
{ "type": "Feature", "properties": { "name": "Josef Rauscha", "type": "doctor" }, "geometry": { "type": "Point", "coordinates": [ 16.4587323, 48.1522717 ] } },
{ "type": "Feature", "properties": { "name": "Erich Hafner", "type": "doctor" }, "geometry": { "type": "Point", "coordinates": [ 16.4468139, 48.2338146 ] } },
{ "type": "Feature", "properties": { "name": "Cornelia Schmeisser", "type": "doctor" }, "geometry": { "type": "Point", "coordinates": [ 16.3799212, 48.2135658 ] } },
{ "type": "Feature", "properties": { "name": "Sylvie Valicek", "type": "doctor" }, "geometry": { "type": "Point", "coordinates": [ 16.3469169, 48.2172587 ] } },
{ "type": "Feature", "properties": { "name": "Agnes Maria Höß", "type": "doctor" }, "geometry": { "type": "Point", "coordinates": [ 16.283860194196684, 48.1890767 ] } },
{ "type": "Feature", "properties": { "name": "Eva Templ-Vonbank", "type": "doctor" }, "geometry": { "type": "Point", "coordinates": [ 16.3587289, 48.238417 ] } },
{ "type": "Feature", "properties": { "name": "Petko Entschev", "type": "doctor" }, "geometry": { "type": "Point", "coordinates": [ 16.3360301, 48.1947829 ] } },
{ "type": "Feature", "properties": { "name": "Sylvia Mohr-Gutharc", "type": "doctor" }, "geometry": { "type": "Point", "coordinates": [ 16.3781772, 48.2112396 ] } },
{ "type": "Feature", "properties": { "name": "Josef Toth", "type": "doctor" }, "geometry": { "type": "Point", "coordinates": [ 16.3480248, 48.217384 ] } },
{ "type": "Feature", "properties": { "name": "Marion Neuhauser", "type": "doctor" }, "geometry": { "type": "Point", "coordinates": [ 16.3417473, 48.1784499 ] } },
{ "type": "Feature", "properties": { "name": "Elisabeth Hofmann-Talos", "type": "doctor" }, "geometry": { "type": "Point", "coordinates": [ 16.3411135, 48.1942747 ] } },
{ "type": "Feature", "properties": { "name": "Claudia Wojnarowski", "type": "doctor" }, "geometry": { "type": "Point", "coordinates": [ 16.3234909, 48.2369652 ] } },
{ "type": "Feature", "properties": { "name": "Angelika Flynn", "type": "doctor" }, "geometry": { "type": "Point", "coordinates": [ 16.3547675, 48.2294973 ] } },
{ "type": "Feature", "properties": { "name": "Alfons Schmid", "type": "doctor" }, "geometry": { "type": "Point", "coordinates": [ 16.4388627, 48.250468 ] } },
{ "type": "Feature", "properties": { "name": "Klaus-Dieter Schatz", "type": "doctor" }, "geometry": { "type": "Point", "coordinates": [ 16.3632002, 48.2504346 ] } },
{ "type": "Feature", "properties": { "name": "Andrea Kreissl", "type": "doctor" }, "geometry": { "type": "Point", "coordinates": [ 16.386236353762236, 48.21381455 ] } },
{ "type": "Feature", "properties": { "name": "Andreas Dopplinger", "type": "doctor" }, "geometry": { "type": "Point", "coordinates": [ 16.338679655155047, 48.24743235 ] } },
{ "type": "Feature", "properties": { "name": "Wolf Müllbacher", "type": "doctor" }, "geometry": { "type": "Point", "coordinates": [ 16.299978615974343, 48.2281581 ] } },
{ "type": "Feature", "properties": { "name": "Elisabeth Dostal", "type": "doctor" }, "geometry": { "type": "Point", "coordinates": [ 16.3498532, 48.2458777 ] } },
{ "type": "Feature", "properties": { "name": "Florian Rosenstingl", "type": "doctor" }, "geometry": { "type": "Point", "coordinates": [ 16.3199883, 48.1979432 ] } },
{ "type": "Feature", "properties": { "name": "Elmar Pokorny", "type": "doctor" }, "geometry": { "type": "Point", "coordinates": [ 16.436037805640176, 48.24114745 ] } },
{ "type": "Feature", "properties": { "name": "Markus Thalmann", "type": "doctor" }, "geometry": { "type": "Point", "coordinates": [ 16.353163, 48.2485976 ] } },
{ "type": "Feature", "properties": { "name": "Elisabeth Brand", "type": "doctor" }, "geometry": { "type": "Point", "coordinates": [ 16.3565918, 48.2161128 ] } },
{ "type": "Feature", "properties": { "name": "Christian Oesterreicher", "type": "doctor" }, "geometry": { "type": "Point", "coordinates": [ 16.375912837824529, 48.19125665 ] } },
{ "type": "Feature", "properties": { "name": "Barbara Sammernegg", "type": "doctor" }, "geometry": { "type": "Point", "coordinates": [ 16.3274548, 48.2345464 ] } },
{ "type": "Feature", "properties": { "name": "Helmut Bacowsky", "type": "doctor" }, "geometry": { "type": "Point", "coordinates": [ 16.3757183, 48.2327659 ] } },
{ "type": "Feature", "properties": { "name": "Roswitha Sudasch", "type": "doctor" }, "geometry": { "type": "Point", "coordinates": [ 16.3685023, 48.2129074 ] } },
{ "type": "Feature", "properties": { "name": "Christian Helmut Müller", "type": "doctor" }, "geometry": { "type": "Point", "coordinates": [ 16.342009034698613, 48.1975528 ] } },
{ "type": "Feature", "properties": { "name": "Martina Kronberger-Vollnhofer", "type": "doctor" }, "geometry": { "type": "Point", "coordinates": [ 16.34725541485507, 48.21225515 ] } },
{ "type": "Feature", "properties": { "name": "Susanne Kargl-Gruber", "type": "doctor" }, "geometry": { "type": "Point", "coordinates": [ 16.4318067, 48.2601443 ] } },
{ "type": "Feature", "properties": { "name": "Peter Voitl", "type": "doctor" }, "geometry": { "type": "Point", "coordinates": [ 16.413605769544631, 48.23265325 ] } },
{ "type": "Feature", "properties": { "name": "Ernest Zulus", "type": "doctor" }, "geometry": { "type": "Point", "coordinates": [ 16.2555973, 48.1511297 ] } },
{ "type": "Feature", "properties": { "name": "Roland Daucher", "type": "doctor" }, "geometry": { "type": "Point", "coordinates": [ 16.366620129905328, 48.2091258 ] } },
{ "type": "Feature", "properties": { "name": "Senta Graf", "type": "doctor" }, "geometry": { "type": "Point", "coordinates": [ 16.3492133, 48.2161081 ] } },
{ "type": "Feature", "properties": { "name": "Sabine Fradl", "type": "doctor" }, "geometry": { "type": "Point", "coordinates": [ 16.26918529906219, 48.1530133 ] } },
{ "type": "Feature", "properties": { "name": "Johanna Zrost", "type": "doctor" }, "geometry": { "type": "Point", "coordinates": [ 16.3618652, 48.1900204 ] } },
{ "type": "Feature", "properties": { "name": "Jörg Schauersberger", "type": "doctor" }, "geometry": { "type": "Point", "coordinates": [ 16.3072999, 48.2151356 ] } },
{ "type": "Feature", "properties": { "name": "Walter Schreiber", "type": "doctor" }, "geometry": { "type": "Point", "coordinates": [ 16.502109782020124, 48.22485075 ] } },
{ "type": "Feature", "properties": { "name": "Eva Maria Riz-Bohdal", "type": "doctor" }, "geometry": { "type": "Point", "coordinates": [ 16.3274548, 48.2345464 ] } },
{ "type": "Feature", "properties": { "name": "Michael Hüpfl", "type": "doctor" }, "geometry": { "type": "Point", "coordinates": [ 16.3243268, 48.232032 ] } },
{ "type": "Feature", "properties": { "name": "Christoph Scherer", "type": "doctor" }, "geometry": { "type": "Point", "coordinates": [ 16.3328737, 48.2163302 ] } },
{ "type": "Feature", "properties": { "name": "Adam Wais", "type": "doctor" }, "geometry": { "type": "Point", "coordinates": [ 16.408491819568063, 48.2756793 ] } },
{ "type": "Feature", "properties": { "name": "Veronika Königswieser", "type": "doctor" }, "geometry": { "type": "Point", "coordinates": [ 16.287301087890047, 48.19161305 ] } },
{ "type": "Feature", "properties": { "name": "Roland Girtler", "type": "doctor" }, "geometry": { "type": "Point", "coordinates": [ 16.3450731, 48.2261403 ] } },
{ "type": "Feature", "properties": { "name": "Friedrich Vorbeck", "type": "doctor" }, "geometry": { "type": "Point", "coordinates": [ 16.436037805640176, 48.24114745 ] } },
{ "type": "Feature", "properties": { "name": "Georg Maiwald", "type": "doctor" }, "geometry": { "type": "Point", "coordinates": [ 16.389996652370378, 48.20577875 ] } },
{ "type": "Feature", "properties": { "name": "Alexander Geppert", "type": "doctor" }, "geometry": { "type": "Point", "coordinates": [ 16.3670786, 48.2085166 ] } },
{ "type": "Feature", "properties": { "name": "Irmgard Neumann", "type": "doctor" }, "geometry": { "type": "Point", "coordinates": [ 16.3708459, 48.2160126 ] } },
{ "type": "Feature", "properties": { "name": "Juliane Maria Karola Frenzel", "type": "doctor" }, "geometry": { "type": "Point", "coordinates": [ 16.34414959689677, 48.19772395 ] } },
{ "type": "Feature", "properties": { "name": "Heinz Hajek", "type": "doctor" }, "geometry": { "type": "Point", "coordinates": [ 16.342048170152506, 48.2006683 ] } },
{ "type": "Feature", "properties": { "name": "Wolf Dietrich Formanek", "type": "doctor" }, "geometry": { "type": "Point", "coordinates": [ 16.301827935787365, 48.2174671 ] } },
{ "type": "Feature", "properties": { "name": "Martin Wustinger", "type": "doctor" }, "geometry": { "type": "Point", "coordinates": [ 16.4438841, 48.2500839 ] } },
{ "type": "Feature", "properties": { "name": "Gohar Babanejad Vajargah", "type": "doctor" }, "geometry": { "type": "Point", "coordinates": [ 16.326112888260869, 48.1817143 ] } },
{ "type": "Feature", "properties": { "name": "Henrik Naszay", "type": "doctor" }, "geometry": { "type": "Point", "coordinates": [ 16.4743745, 48.2179123 ] } },
{ "type": "Feature", "properties": { "name": "Matthias Boesch", "type": "doctor" }, "geometry": { "type": "Point", "coordinates": [ 16.2929596, 48.1909883 ] } },
{ "type": "Feature", "properties": { "name": "Gholam Sachi Pajenda", "type": "doctor" }, "geometry": { "type": "Point", "coordinates": [ 16.3450731, 48.2261403 ] } },
{ "type": "Feature", "properties": { "name": "Katharina Schuchter", "type": "doctor" }, "geometry": { "type": "Point", "coordinates": [ 16.371711118978101, 48.1953445 ] } },
{ "type": "Feature", "properties": { "name": "Alexandra König", "type": "doctor" }, "geometry": { "type": "Point", "coordinates": [ 16.3526109, 48.2251208 ] } },
{ "type": "Feature", "properties": { "name": "Martin Riedl", "type": "doctor" }, "geometry": { "type": "Point", "coordinates": [ 16.3359396, 48.2280519 ] } },
{ "type": "Feature", "properties": { "name": "Aglaja Weihs-Zuckermann", "type": "doctor" }, "geometry": { "type": "Point", "coordinates": [ 16.3176501, 48.2410182 ] } },
{ "type": "Feature", "properties": { "name": "Evelyn Gebhart", "type": "doctor" }, "geometry": { "type": "Point", "coordinates": [ 16.3667582, 48.2274263 ] } },
{ "type": "Feature", "properties": { "name": "Ulrich Schmidbauer", "type": "doctor" }, "geometry": { "type": "Point", "coordinates": [ 16.3681766, 48.2033681 ] } },
{ "type": "Feature", "properties": { "name": "Thomas Grünberger", "type": "doctor" }, "geometry": { "type": "Point", "coordinates": [ 16.3506643, 48.2210183 ] } },
{ "type": "Feature", "properties": { "name": "Georg Heydenreich", "type": "doctor" }, "geometry": { "type": "Point", "coordinates": [ 16.457925864533692, 48.2308955 ] } },
{ "type": "Feature", "properties": { "name": "Gerda Maria Saletu-Zyhlarz", "type": "doctor" }, "geometry": { "type": "Point", "coordinates": [ 16.3521334, 48.2549345 ] } },
{ "type": "Feature", "properties": { "name": "Gabriele Mann", "type": "doctor" }, "geometry": { "type": "Point", "coordinates": [ 16.471825293850465, 48.2334343 ] } },
{ "type": "Feature", "properties": { "name": "Istvan Kalakatroni", "type": "doctor" }, "geometry": { "type": "Point", "coordinates": [ 16.422778292638718, 48.2780366 ] } },
{ "type": "Feature", "properties": { "name": "Paul Prem", "type": "doctor" }, "geometry": { "type": "Point", "coordinates": [ 16.3827493, 48.2445452 ] } },
{ "type": "Feature", "properties": { "name": "Bettina Zenz", "type": "doctor" }, "geometry": { "type": "Point", "coordinates": [ 16.2684801, 48.1792648 ] } },
{ "type": "Feature", "properties": { "name": "Georg Dimitriadis", "type": "doctor" }, "geometry": { "type": "Point", "coordinates": [ 16.3348775, 48.2220145 ] } },
{ "type": "Feature", "properties": { "name": "Johannes Schweiger", "type": "doctor" }, "geometry": { "type": "Point", "coordinates": [ 16.3733152, 48.1872898 ] } },
{ "type": "Feature", "properties": { "name": "Berrin Barlan", "type": "doctor" }, "geometry": { "type": "Point", "coordinates": [ 16.407143538771059, 48.2205331 ] } },
{ "type": "Feature", "properties": { "name": "Klaus Peter Guglia", "type": "doctor" }, "geometry": { "type": "Point", "coordinates": [ 16.3707047, 48.2086286 ] } },
{ "type": "Feature", "properties": { "name": "Maria Heger", "type": "doctor" }, "geometry": { "type": "Point", "coordinates": [ 16.3932989, 48.2004093 ] } },
{ "type": "Feature", "properties": { "name": "Christian Enserer", "type": "doctor" }, "geometry": { "type": "Point", "coordinates": [ 16.3469169, 48.2172587 ] } },
{ "type": "Feature", "properties": { "name": "Karl Hubert Durchschlag", "type": "doctor" }, "geometry": { "type": "Point", "coordinates": [ 16.3722181, 48.1867815 ] } },
{ "type": "Feature", "properties": { "name": "Georg Hess", "type": "doctor" }, "geometry": { "type": "Point", "coordinates": [ 16.4387732, 48.2502462 ] } },
{ "type": "Feature", "properties": { "name": "Gerhard Reisz", "type": "doctor" }, "geometry": { "type": "Point", "coordinates": [ 16.20954049480148, 48.2060668 ] } },
{ "type": "Feature", "properties": { "name": "Naser Seifi", "type": "doctor" }, "geometry": { "type": "Point", "coordinates": [ 16.3478821, 48.1973893 ] } },
{ "type": "Feature", "properties": { "name": "Albert Syen", "type": "doctor" }, "geometry": { "type": "Point", "coordinates": [ 16.4197553, 48.2287113 ] } },
{ "type": "Feature", "properties": { "name": "Maria Anna Pelzl", "type": "doctor" }, "geometry": { "type": "Point", "coordinates": [ 16.3393398, 48.1763613 ] } },
{ "type": "Feature", "properties": { "name": "Rainer Kotz", "type": "doctor" }, "geometry": { "type": "Point", "coordinates": [ 16.3762893, 48.2095059 ] } },
{ "type": "Feature", "properties": { "name": "Ingrid Guth", "type": "doctor" }, "geometry": { "type": "Point", "coordinates": [ 16.342048170152506, 48.2006683 ] } },
{ "type": "Feature", "properties": { "name": "Eva Wegrostek", "type": "doctor" }, "geometry": { "type": "Point", "coordinates": [ 16.3750576, 48.2089745 ] } },
{ "type": "Feature", "properties": { "name": "Bernhard Parschalk", "type": "doctor" }, "geometry": { "type": "Point", "coordinates": [ 16.3469169, 48.2172587 ] } },
{ "type": "Feature", "properties": { "name": "Bernhard Partik", "type": "doctor" }, "geometry": { "type": "Point", "coordinates": [ 16.3838558, 48.2359188 ] } },
{ "type": "Feature", "properties": { "name": "Edith Hofer", "type": "doctor" }, "geometry": { "type": "Point", "coordinates": [ 16.338265658908046, 48.2046615 ] } },
{ "type": "Feature", "properties": { "name": "Elisabeth Larch-Stuschka", "type": "doctor" }, "geometry": { "type": "Point", "coordinates": [ 16.3918256, 48.1944643 ] } },
{ "type": "Feature", "properties": { "name": "Martin Aigner", "type": "doctor" }, "geometry": { "type": "Point", "coordinates": [ 16.345042952381419, 48.22372755 ] } },
{ "type": "Feature", "properties": { "name": "Claudia Wiegand", "type": "doctor" }, "geometry": { "type": "Point", "coordinates": [ 16.3636962, 48.223085 ] } },
{ "type": "Feature", "properties": { "name": "Alexandra Geusau", "type": "doctor" }, "geometry": { "type": "Point", "coordinates": [ 16.3643485, 48.2121474 ] } },
{ "type": "Feature", "properties": { "name": "Anita Ingeborg Rohrbacher", "type": "doctor" }, "geometry": { "type": "Point", "coordinates": [ 16.2894453, 48.1867087 ] } },
{ "type": "Feature", "properties": { "name": "Abdul Rahman Suker Al-Ghazali", "type": "doctor" }, "geometry": { "type": "Point", "coordinates": [ 16.366068776631753, 48.16024705 ] } },
{ "type": "Feature", "properties": { "name": "Astrid Nader", "type": "doctor" }, "geometry": { "type": "Point", "coordinates": [ 16.305978922831304, 48.2195982 ] } },
{ "type": "Feature", "properties": { "name": "Edith Promintzer", "type": "doctor" }, "geometry": { "type": "Point", "coordinates": [ 16.377833, 48.1730461 ] } },
{ "type": "Feature", "properties": { "name": "Andreas Obruca", "type": "doctor" }, "geometry": { "type": "Point", "coordinates": [ 16.3612883, 48.1999814 ] } },
{ "type": "Feature", "properties": { "name": "Ruth Pöchacker", "type": "doctor" }, "geometry": { "type": "Point", "coordinates": [ 16.3374036, 48.1949572 ] } },
{ "type": "Feature", "properties": { "name": "Claudia Neudecker", "type": "doctor" }, "geometry": { "type": "Point", "coordinates": [ 16.3902501, 48.1938366 ] } },
{ "type": "Feature", "properties": { "name": "Stephan Kaminski", "type": "doctor" }, "geometry": { "type": "Point", "coordinates": [ 16.3616239, 48.2022228 ] } },
{ "type": "Feature", "properties": { "name": "Andreas Michael Herneth", "type": "doctor" }, "geometry": { "type": "Point", "coordinates": [ 16.4440468, 48.2738532 ] } },
{ "type": "Feature", "properties": { "name": "Judit Kroo", "type": "doctor" }, "geometry": { "type": "Point", "coordinates": [ 16.2187412, 48.2084359 ] } },
{ "type": "Feature", "properties": { "name": "Ralf Gössler", "type": "doctor" }, "geometry": { "type": "Point", "coordinates": [ 16.3672956, 48.2087096 ] } },
{ "type": "Feature", "properties": { "name": "Irene Maria Scheuba", "type": "doctor" }, "geometry": { "type": "Point", "coordinates": [ 16.338706350097279, 48.22180355 ] } },
{ "type": "Feature", "properties": { "name": "Christian Gäbler", "type": "doctor" }, "geometry": { "type": "Point", "coordinates": [ 16.3484422, 48.2146131 ] } },
{ "type": "Feature", "properties": { "name": "Gabriela Richter", "type": "doctor" }, "geometry": { "type": "Point", "coordinates": [ 16.4026813, 48.2734583 ] } },
{ "type": "Feature", "properties": { "name": "Klaus Kaserer", "type": "doctor" }, "geometry": { "type": "Point", "coordinates": [ 16.3825132, 48.2024518 ] } },
{ "type": "Feature", "properties": { "name": "Thomas Franz Müllner", "type": "doctor" }, "geometry": { "type": "Point", "coordinates": [ 16.2898808, 48.1852983 ] } },
{ "type": "Feature", "properties": { "name": "Thomas Publig", "type": "doctor" }, "geometry": { "type": "Point", "coordinates": [ 16.3433039, 48.2458986 ] } },
{ "type": "Feature", "properties": { "name": "Georg Ludvik", "type": "doctor" }, "geometry": { "type": "Point", "coordinates": [ 16.3514158, 48.2065383 ] } },